[{"id":"lgd_districts-0","name":"Udupi","level":"district","source_layer":"lgd_districts","lat":13.4983,"lon":74.872,"state":"Karnataka"},{"id":"lgd_districts-1","name":"Shivamogga","level":"district","source_layer":"lgd_districts","lat":14.0432,"lon":75.2204,"state":"Karnataka"},{"id":"lgd_districts-2","name":"Dakshina Kannada","level":"district","source_layer":"lgd_districts","lat":12.8531,"lon":75.2509,"state":"Karnataka"},{"id":"lgd_districts-3","name":"Kasaragod","level":"district","source_layer":"lgd_districts","lat":12.4624,"lon":75.151,"state":"Kerala"},{"id":"lgd_districts-4","name":"Lakshadweep District","level":"district","source_layer":"lgd_districts","lat":10.8126,"lon":73.6771,"state":"Lakshadweep"},{"id":"lgd_districts-5","name":"Thiruvananthapuram","level":"district","source_layer":"lgd_districts","lat":8.6095,"lon":77.0122,"state":"Kerala"},{"id":"lgd_districts-6","name":"Kottayam","level":"district","source_layer":"lgd_districts","lat":9.6377,"lon":76.6507,"state":"Kerala"},{"id":"lgd_districts-7","name":"Ernakulam","level":"district","source_layer":"lgd_districts","lat":10.0845,"lon":76.546,"state":"Kerala"},{"id":"lgd_districts-8","name":"Thrissur","level":"district","source_layer":"lgd_districts","lat":10.4717,"lon":76.3154,"state":"Kerala"},{"id":"lgd_districts-9","name":"Idukki","level":"district","source_layer":"lgd_districts","lat":9.8397,"lon":77.0568,"state":"Kerala"},{"id":"lgd_districts-10","name":"Pathanamthitta","level":"district","source_layer":"lgd_districts","lat":9.2849,"lon":76.9264,"state":"Kerala"},{"id":"lgd_districts-11","name":"Alappuzha","level":"district","source_layer":"lgd_districts","lat":9.4284,"lon":76.447,"state":"Kerala"},{"id":"lgd_districts-12","name":"Kollam","level":"district","source_layer":"lgd_districts","lat":8.9625,"lon":76.8717,"state":"Kerala"},{"id":"lgd_districts-13","name":"Tenkasi","level":"district","source_layer":"lgd_districts","lat":9.0925,"lon":77.4599,"state":"Tamil Nadu"},{"id":"lgd_districts-14","name":"Tuticorin","level":"district","source_layer":"lgd_districts","lat":8.9015,"lon":77.9976,"state":"Tamil Nadu"},{"id":"lgd_districts-15","name":"Virudhunagar","level":"district","source_layer":"lgd_districts","lat":9.4923,"lon":77.9057,"state":"Tamil Nadu"},{"id":"lgd_districts-16","name":"Theni","level":"district","source_layer":"lgd_districts","lat":9.8918,"lon":77.4384,"state":"Tamil Nadu"},{"id":"lgd_districts-17","name":"Dindigul","level":"district","source_layer":"lgd_districts","lat":10.3917,"lon":77.8197,"state":"Tamil Nadu"},{"id":"lgd_districts-18","name":"Madurai","level":"district","source_layer":"lgd_districts","lat":9.9227,"lon":78.0052,"state":"Tamil Nadu"},{"id":"lgd_districts-19","name":"Sivaganga","level":"district","source_layer":"lgd_districts","lat":9.9165,"lon":78.5961,"state":"Tamil Nadu"},{"id":"lgd_districts-20","name":"Pudukkottai","level":"district","source_layer":"lgd_districts","lat":10.3605,"lon":78.8797,"state":"Tamil Nadu"},{"id":"lgd_districts-21","name":"Ramanathapuram","level":"district","source_layer":"lgd_districts","lat":9.4384,"lon":78.6845,"state":"Tamil Nadu"},{"id":"lgd_districts-22","name":"Tirunelveli","level":"district","source_layer":"lgd_districts","lat":8.575,"lon":77.5904,"state":"Tamil Nadu"},{"id":"lgd_districts-23","name":"Kanniyakumari","level":"district","source_layer":"lgd_districts","lat":8.3081,"lon":77.3596,"state":"Tamil Nadu"},{"id":"lgd_districts-24","name":"Thanjavur","level":"district","source_layer":"lgd_districts","lat":10.6707,"lon":79.2415,"state":"Tamil Nadu"},{"id":"lgd_districts-25","name":"Thiruvarur","level":"district","source_layer":"lgd_districts","lat":10.6794,"lon":79.5336,"state":"Tamil Nadu"},{"id":"lgd_districts-26","name":"Nagapattinam","level":"district","source_layer":"lgd_districts","lat":10.577,"lon":79.7618,"state":"Tamil Nadu"},{"id":"lgd_districts-27","name":"Karaikal","level":"district","source_layer":"lgd_districts","lat":10.9334,"lon":79.8029,"state":"Puducherry"},{"id":"lgd_districts-28","name":"Mayiladuthurai","level":"district","source_layer":"lgd_districts","lat":11.1526,"lon":79.7098,"state":"Tamil Nadu"},{"id":"lgd_districts-29","name":"Ariyalur","level":"district","source_layer":"lgd_districts","lat":11.1626,"lon":79.243,"state":"Tamil Nadu"},{"id":"lgd_districts-30","name":"Cuddalore","level":"district","source_layer":"lgd_districts","lat":11.5353,"lon":79.4499,"state":"Tamil Nadu"},{"id":"lgd_districts-31","name":"Tiruvannamalai","level":"district","source_layer":"lgd_districts","lat":12.4315,"lon":79.1661,"state":"Tamil Nadu"},{"id":"lgd_districts-32","name":"Villupuram","level":"district","source_layer":"lgd_districts","lat":12.1346,"lon":79.5425,"state":"Tamil Nadu"},{"id":"lgd_districts-33","name":"Pondicherry","level":"district","source_layer":"lgd_districts","lat":11.9155,"lon":79.7672,"state":"Puducherry"},{"id":"lgd_districts-34","name":"Chennai","level":"district","source_layer":"lgd_districts","lat":13.1004,"lon":80.2349,"state":"Tamil Nadu"},{"id":"lgd_districts-35","name":"Thiruvallur","level":"district","source_layer":"lgd_districts","lat":13.244,"lon":79.9328,"state":"Tamil Nadu"},{"id":"lgd_districts-36","name":"Kanchipuram","level":"district","source_layer":"lgd_districts","lat":12.8266,"lon":79.8271,"state":"Tamil Nadu"},{"id":"lgd_districts-37","name":"Chengalpattu","level":"district","source_layer":"lgd_districts","lat":12.583,"lon":79.9992,"state":"Tamil Nadu"},{"id":"lgd_districts-38","name":"Ranipet","level":"district","source_layer":"lgd_districts","lat":12.9499,"lon":79.4617,"state":"Tamil Nadu"},{"id":"lgd_districts-39","name":"Tirupati","level":"district","source_layer":"lgd_districts","lat":13.7522,"lon":79.7155,"state":"Andhra Pradesh"},{"id":"lgd_districts-40","name":"Annamayya","level":"district","source_layer":"lgd_districts","lat":13.9248,"lon":78.8328,"state":"Andhra Pradesh"},{"id":"lgd_districts-41","name":"Sri Sathya Sai","level":"district","source_layer":"lgd_districts","lat":14.1364,"lon":77.7626,"state":"Andhra Pradesh"},{"id":"lgd_districts-42","name":"Chikkaballapura","level":"district","source_layer":"lgd_districts","lat":13.578,"lon":77.8353,"state":"Karnataka"},{"id":"lgd_districts-43","name":"Kolar","level":"district","source_layer":"lgd_districts","lat":13.1397,"lon":78.2179,"state":"Karnataka"},{"id":"lgd_districts-44","name":"Bengaluru Rural","level":"district","source_layer":"lgd_districts","lat":13.2272,"lon":77.5741,"state":"Karnataka"},{"id":"lgd_districts-45","name":"Bengaluru Urban","level":"district","source_layer":"lgd_districts","lat":12.9518,"lon":77.5937,"state":"Karnataka"},{"id":"lgd_districts-46","name":"Ramanagara","level":"district","source_layer":"lgd_districts","lat":12.6791,"lon":77.3354,"state":"Karnataka"},{"id":"lgd_districts-47","name":"Krishnagiri","level":"district","source_layer":"lgd_districts","lat":12.4902,"lon":78.0324,"state":"Tamil Nadu"},{"id":"lgd_districts-48","name":"Tirupathur","level":"district","source_layer":"lgd_districts","lat":12.5937,"lon":78.6554,"state":"Tamil Nadu"},{"id":"lgd_districts-49","name":"Chittoor","level":"district","source_layer":"lgd_districts","lat":13.2238,"lon":78.8588,"state":"Andhra Pradesh"},{"id":"lgd_districts-50","name":"Vellore","level":"district","source_layer":"lgd_districts","lat":12.9143,"lon":78.9661,"state":"Tamil Nadu"},{"id":"lgd_districts-51","name":"Kallakurichi","level":"district","source_layer":"lgd_districts","lat":11.8021,"lon":79.0346,"state":"Tamil Nadu"},{"id":"lgd_districts-52","name":"Perambalur","level":"district","source_layer":"lgd_districts","lat":11.2751,"lon":78.8916,"state":"Tamil Nadu"},{"id":"lgd_districts-53","name":"Tiruchirappalli","level":"district","source_layer":"lgd_districts","lat":10.891,"lon":78.5704,"state":"Tamil Nadu"},{"id":"lgd_districts-54","name":"Namakkal","level":"district","source_layer":"lgd_districts","lat":11.3188,"lon":78.1357,"state":"Tamil Nadu"},{"id":"lgd_districts-55","name":"Karur","level":"district","source_layer":"lgd_districts","lat":10.8443,"lon":78.1346,"state":"Tamil Nadu"},{"id":"lgd_districts-56","name":"Tiruppur","level":"district","source_layer":"lgd_districts","lat":10.839,"lon":77.4073,"state":"Tamil Nadu"},{"id":"lgd_districts-57","name":"Erode","level":"district","source_layer":"lgd_districts","lat":11.4748,"lon":77.3774,"state":"Tamil Nadu"},{"id":"lgd_districts-58","name":"Salem","level":"district","source_layer":"lgd_districts","lat":11.6912,"lon":78.1289,"state":"Tamil Nadu"},{"id":"lgd_districts-59","name":"Dharmapuri","level":"district","source_layer":"lgd_districts","lat":12.1005,"lon":78.1932,"state":"Tamil Nadu"},{"id":"lgd_districts-60","name":"Mysuru","level":"district","source_layer":"lgd_districts","lat":12.2108,"lon":76.4412,"state":"Karnataka"},{"id":"lgd_districts-61","name":"Chamarajanagara","level":"district","source_layer":"lgd_districts","lat":11.9582,"lon":77.0977,"state":"Karnataka"},{"id":"lgd_districts-62","name":"Coimbatore","level":"district","source_layer":"lgd_districts","lat":10.8781,"lon":76.9757,"state":"Tamil Nadu"},{"id":"lgd_districts-63","name":"Palakkad","level":"district","source_layer":"lgd_districts","lat":10.7956,"lon":76.5564,"state":"Kerala"},{"id":"lgd_districts-64","name":"The Nilgiris","level":"district","source_layer":"lgd_districts","lat":11.4533,"lon":76.626,"state":"Tamil Nadu"},{"id":"lgd_districts-65","name":"Malappuram","level":"district","source_layer":"lgd_districts","lat":11.1333,"lon":76.1544,"state":"Kerala"},{"id":"lgd_districts-66","name":"Kozhikode","level":"district","source_layer":"lgd_districts","lat":11.4856,"lon":75.8333,"state":"Kerala"},{"id":"lgd_districts-67","name":"Mahe","level":"district","source_layer":"lgd_districts","lat":11.7317,"lon":75.5401,"state":"Puducherry"},{"id":"lgd_districts-68","name":"Wayanad","level":"district","source_layer":"lgd_districts","lat":11.7125,"lon":76.0978,"state":"Kerala"},{"id":"lgd_districts-69","name":"Kodagu","level":"district","source_layer":"lgd_districts","lat":12.325,"lon":75.8013,"state":"Karnataka"},{"id":"lgd_districts-70","name":"Kannur","level":"district","source_layer":"lgd_districts","lat":12.0004,"lon":75.5236,"state":"Kerala"},{"id":"lgd_districts-71","name":"Hassan","level":"district","source_layer":"lgd_districts","lat":12.9964,"lon":76.1078,"state":"Karnataka"},{"id":"lgd_districts-72","name":"Mandya","level":"district","source_layer":"lgd_districts","lat":12.6123,"lon":76.7973,"state":"Karnataka"},{"id":"lgd_districts-73","name":"Tumakuru","level":"district","source_layer":"lgd_districts","lat":13.4273,"lon":76.9015,"state":"Karnataka"},{"id":"lgd_districts-74","name":"Chitradurga","level":"district","source_layer":"lgd_districts","lat":14.1686,"lon":76.5152,"state":"Karnataka"},{"id":"lgd_districts-75","name":"Davangere","level":"district","source_layer":"lgd_districts","lat":14.3084,"lon":75.9451,"state":"Karnataka"},{"id":"lgd_districts-76","name":"Chikkamagaluru","level":"district","source_layer":"lgd_districts","lat":13.4546,"lon":75.6906,"state":"Karnataka"},{"id":"lgd_districts-77","name":"Vijayanagar","level":"district","source_layer":"lgd_districts","lat":14.8933,"lon":76.185,"state":"Karnataka"},{"id":"lgd_districts-78","name":"Ballari","level":"district","source_layer":"lgd_districts","lat":15.2661,"lon":76.8077,"state":"Karnataka"},{"id":"lgd_districts-79","name":"Raichur","level":"district","source_layer":"lgd_districts","lat":16.0907,"lon":76.8918,"state":"Karnataka"},{"id":"lgd_districts-80","name":"Koppal","level":"district","source_layer":"lgd_districts","lat":15.5622,"lon":76.2216,"state":"Karnataka"},{"id":"lgd_districts-81","name":"Gadag","level":"district","source_layer":"lgd_districts","lat":15.4314,"lon":75.6652,"state":"Karnataka"},{"id":"lgd_districts-82","name":"Bagalkote","level":"district","source_layer":"lgd_districts","lat":16.2214,"lon":75.6248,"state":"Karnataka"},{"id":"lgd_districts-83","name":"Vijayapura","level":"district","source_layer":"lgd_districts","lat":16.7945,"lon":75.9528,"state":"Karnataka"},{"id":"lgd_districts-84","name":"Solapur","level":"district","source_layer":"lgd_districts","lat":17.7907,"lon":75.4831,"state":"Maharashtra"},{"id":"lgd_districts-85","name":"Bidar","level":"district","source_layer":"lgd_districts","lat":17.9523,"lon":77.225,"state":"Karnataka"},{"id":"lgd_districts-86","name":"Kalaburagi","level":"district","source_layer":"lgd_districts","lat":17.2604,"lon":76.869,"state":"Karnataka"},{"id":"lgd_districts-87","name":"Yadgir","level":"district","source_layer":"lgd_districts","lat":16.6269,"lon":76.9125,"state":"Karnataka"},{"id":"lgd_districts-88","name":"Narayanpet","level":"district","source_layer":"lgd_districts","lat":16.6433,"lon":77.5803,"state":"Telangana"},{"id":"lgd_districts-89","name":"Wanaparthy","level":"district","source_layer":"lgd_districts","lat":16.2896,"lon":78.0424,"state":"Telangana"},{"id":"lgd_districts-90","name":"Mahabubnagar","level":"district","source_layer":"lgd_districts","lat":16.7515,"lon":78.0132,"state":"Telangana"},{"id":"lgd_districts-91","name":"Vikarabad","level":"district","source_layer":"lgd_districts","lat":17.2463,"lon":77.7508,"state":"Telangana"},{"id":"lgd_districts-92","name":"Sangareddy","level":"district","source_layer":"lgd_districts","lat":17.7853,"lon":77.8741,"state":"Telangana"},{"id":"lgd_districts-93","name":"Medak","level":"district","source_layer":"lgd_districts","lat":17.9532,"lon":78.265,"state":"Telangana"},{"id":"lgd_districts-94","name":"Hyderabad","level":"district","source_layer":"lgd_districts","lat":17.3951,"lon":78.4702,"state":"Telangana"},{"id":"lgd_districts-95","name":"Medchal Malkajgiri","level":"district","source_layer":"lgd_districts","lat":17.5442,"lon":78.5577,"state":"Telangana"},{"id":"lgd_districts-96","name":"Siddipet","level":"district","source_layer":"lgd_districts","lat":18.0217,"lon":78.8571,"state":"Telangana"},{"id":"lgd_districts-97","name":"Yadadri Bhuvanagiri","level":"district","source_layer":"lgd_districts","lat":17.4512,"lon":78.9787,"state":"Telangana"},{"id":"lgd_districts-98","name":"Ranga Reddy","level":"district","source_layer":"lgd_districts","lat":17.131,"lon":78.4125,"state":"Telangana"},{"id":"lgd_districts-99","name":"Nagarkurnool","level":"district","source_layer":"lgd_districts","lat":16.3822,"lon":78.596,"state":"Telangana"},{"id":"lgd_districts-100","name":"Nandyal","level":"district","source_layer":"lgd_districts","lat":15.4762,"lon":78.3755,"state":"Andhra Pradesh"},{"id":"lgd_districts-101","name":"Jogulamba Gadwal","level":"district","source_layer":"lgd_districts","lat":16.0717,"lon":77.781,"state":"Telangana"},{"id":"lgd_districts-102","name":"Kurnool","level":"district","source_layer":"lgd_districts","lat":15.6002,"lon":77.5392,"state":"Andhra Pradesh"},{"id":"lgd_districts-103","name":"Anantapur","level":"district","source_layer":"lgd_districts","lat":14.7831,"lon":77.4072,"state":"Andhra Pradesh"},{"id":"lgd_districts-104","name":"Y.S.R.","level":"district","source_layer":"lgd_districts","lat":14.6584,"lon":78.6533,"state":"Andhra Pradesh"},{"id":"lgd_districts-105","name":"Spsr Nellore","level":"district","source_layer":"lgd_districts","lat":14.6893,"lon":79.686,"state":"Andhra Pradesh"},{"id":"lgd_districts-106","name":"Prakasam","level":"district","source_layer":"lgd_districts","lat":15.6137,"lon":79.3925,"state":"Andhra Pradesh"},{"id":"lgd_districts-107","name":"Bapatla","level":"district","source_layer":"lgd_districts","lat":15.9386,"lon":80.3716,"state":"Andhra Pradesh"},{"id":"lgd_districts-108","name":"Krishna","level":"district","source_layer":"lgd_districts","lat":16.2637,"lon":80.9927,"state":"Andhra Pradesh"},{"id":"lgd_districts-109","name":"Eluru","level":"district","source_layer":"lgd_districts","lat":16.9677,"lon":81.192,"state":"Andhra Pradesh"},{"id":"lgd_districts-110","name":"East Godavari","level":"district","source_layer":"lgd_districts","lat":17.0377,"lon":81.7249,"state":"Andhra Pradesh"},{"id":"lgd_districts-111","name":"West Godavari","level":"district","source_layer":"lgd_districts","lat":16.5948,"lon":81.5937,"state":"Andhra Pradesh"},{"id":"lgd_districts-112","name":"Konaseema","level":"district","source_layer":"lgd_districts","lat":16.6464,"lon":81.9844,"state":"Andhra Pradesh"},{"id":"lgd_districts-113","name":"Kakinada","level":"district","source_layer":"lgd_districts","lat":17.1639,"lon":82.2509,"state":"Andhra Pradesh"},{"id":"lgd_districts-114","name":"Yanam","level":"district","source_layer":"lgd_districts","lat":16.7277,"lon":82.2528,"state":"Puducherry"},{"id":"lgd_districts-115","name":"Anakapalli","level":"district","source_layer":"lgd_districts","lat":17.6626,"lon":82.7958,"state":"Andhra Pradesh"},{"id":"lgd_districts-116","name":"Alluri Sitharama Raju","level":"district","source_layer":"lgd_districts","lat":17.8353,"lon":82.1288,"state":"Andhra Pradesh"},{"id":"lgd_districts-117","name":"Bhadradri Kothagudem","level":"district","source_layer":"lgd_districts","lat":17.6905,"lon":80.7165,"state":"Telangana"},{"id":"lgd_districts-118","name":"Guntur","level":"district","source_layer":"lgd_districts","lat":16.284,"lon":80.468,"state":"Andhra Pradesh"},{"id":"lgd_districts-119","name":"Ntr","level":"district","source_layer":"lgd_districts","lat":16.8223,"lon":80.4628,"state":"Andhra Pradesh"},{"id":"lgd_districts-120","name":"Khammam","level":"district","source_layer":"lgd_districts","lat":17.2059,"lon":80.3651,"state":"Telangana"},{"id":"lgd_districts-121","name":"Suryapet","level":"district","source_layer":"lgd_districts","lat":17.0806,"lon":79.7544,"state":"Telangana"},{"id":"lgd_districts-122","name":"Palnadu","level":"district","source_layer":"lgd_districts","lat":16.3619,"lon":79.8106,"state":"Andhra Pradesh"},{"id":"lgd_districts-123","name":"Nalgonda","level":"district","source_layer":"lgd_districts","lat":16.8765,"lon":79.1931,"state":"Telangana"},{"id":"lgd_districts-124","name":"Warangal","level":"district","source_layer":"lgd_districts","lat":17.8662,"lon":79.7512,"state":"Telangana"},{"id":"lgd_districts-125","name":"Mahabubabad","level":"district","source_layer":"lgd_districts","lat":17.6752,"lon":79.9963,"state":"Telangana"},{"id":"lgd_districts-126","name":"Hanumakonda","level":"district","source_layer":"lgd_districts","lat":18.0623,"lon":79.5329,"state":"Telangana"},{"id":"lgd_districts-127","name":"Jangoan","level":"district","source_layer":"lgd_districts","lat":17.7264,"lon":79.2818,"state":"Telangana"},{"id":"lgd_districts-128","name":"Karimnagar","level":"district","source_layer":"lgd_districts","lat":18.38,"lon":79.2453,"state":"Telangana"},{"id":"lgd_districts-129","name":"Jayashankar Bhupalapally","level":"district","source_layer":"lgd_districts","lat":18.506,"lon":79.9244,"state":"Telangana"},{"id":"lgd_districts-130","name":"Mancherial","level":"district","source_layer":"lgd_districts","lat":18.9915,"lon":79.5123,"state":"Telangana"},{"id":"lgd_districts-131","name":"Peddapalli","level":"district","source_layer":"lgd_districts","lat":18.6202,"lon":79.4537,"state":"Telangana"},{"id":"lgd_districts-132","name":"Kumuram Bheem Asifabad","level":"district","source_layer":"lgd_districts","lat":19.3571,"lon":79.4198,"state":"Telangana"},{"id":"lgd_districts-133","name":"Gadchiroli","level":"district","source_layer":"lgd_districts","lat":19.7879,"lon":80.2404,"state":"Maharashtra"},{"id":"lgd_districts-134","name":"Bijapur","level":"district","source_layer":"lgd_districts","lat":18.8612,"lon":80.8015,"state":"Chhattisgarh"},{"id":"lgd_districts-135","name":"Mulugu","level":"district","source_layer":"lgd_districts","lat":18.2915,"lon":80.3375,"state":"Telangana"},{"id":"lgd_districts-136","name":"Dantewada","level":"district","source_layer":"lgd_districts","lat":18.8027,"lon":81.3927,"state":"Chhattisgarh"},{"id":"lgd_districts-137","name":"Sukma","level":"district","source_layer":"lgd_districts","lat":18.284,"lon":81.3784,"state":"Chhattisgarh"},{"id":"lgd_districts-138","name":"Malkangiri","level":"district","source_layer":"lgd_districts","lat":18.2577,"lon":81.9505,"state":"Odisha"},{"id":"lgd_districts-139","name":"Koraput","level":"district","source_layer":"lgd_districts","lat":18.8129,"lon":82.7197,"state":"Odisha"},{"id":"lgd_districts-140","name":"Nabarangpur","level":"district","source_layer":"lgd_districts","lat":19.5765,"lon":82.3345,"state":"Odisha"},{"id":"lgd_districts-141","name":"Kondagaon","level":"district","source_layer":"lgd_districts","lat":19.7456,"lon":81.6646,"state":"Chhattisgarh"},{"id":"lgd_districts-142","name":"Bastar","level":"district","source_layer":"lgd_districts","lat":19.1104,"lon":81.8707,"state":"Chhattisgarh"},{"id":"lgd_districts-143","name":"Narayanpur","level":"district","source_layer":"lgd_districts","lat":19.5699,"lon":81.0842,"state":"Chhattisgarh"},{"id":"lgd_districts-144","name":"Kanker","level":"district","source_layer":"lgd_districts","lat":20.1376,"lon":81.1227,"state":"Chhattisgarh"},{"id":"lgd_districts-145","name":"Balod","level":"district","source_layer":"lgd_districts","lat":20.7415,"lon":81.1886,"state":"Chhattisgarh"},{"id":"lgd_districts-146","name":"Dhamtari","level":"district","source_layer":"lgd_districts","lat":20.5552,"lon":81.8091,"state":"Chhattisgarh"},{"id":"lgd_districts-147","name":"Gariyaband","level":"district","source_layer":"lgd_districts","lat":20.4481,"lon":82.2352,"state":"Chhattisgarh"},{"id":"lgd_districts-148","name":"Nuapada","level":"district","source_layer":"lgd_districts","lat":20.466,"lon":82.5769,"state":"Odisha"},{"id":"lgd_districts-149","name":"Mahasamund","level":"district","source_layer":"lgd_districts","lat":21.208,"lon":82.6083,"state":"Chhattisgarh"},{"id":"lgd_districts-150","name":"Baloda Bazar","level":"district","source_layer":"lgd_districts","lat":21.5755,"lon":82.2446,"state":"Chhattisgarh"},{"id":"lgd_districts-151","name":"Bemetara","level":"district","source_layer":"lgd_districts","lat":21.6609,"lon":81.4699,"state":"Chhattisgarh"},{"id":"lgd_districts-152","name":"Raipur","level":"district","source_layer":"lgd_districts","lat":21.2858,"lon":81.8201,"state":"Chhattisgarh"},{"id":"lgd_districts-153","name":"Durg","level":"district","source_layer":"lgd_districts","lat":21.2203,"lon":81.3833,"state":"Chhattisgarh"},{"id":"lgd_districts-154","name":"Khairgarh Chhuikhadan Gandai","level":"district","source_layer":"lgd_districts","lat":21.5326,"lon":80.9398,"state":"Chhattisgarh"},{"id":"lgd_districts-155","name":"Balaghat","level":"district","source_layer":"lgd_districts","lat":21.8808,"lon":80.3598,"state":"Madhya Pradesh"},{"id":"lgd_districts-156","name":"Gondia","level":"district","source_layer":"lgd_districts","lat":21.1653,"lon":80.2179,"state":"Maharashtra"},{"id":"lgd_districts-157","name":"Rajnandgaon","level":"district","source_layer":"lgd_districts","lat":21.089,"lon":80.8175,"state":"Chhattisgarh"},{"id":"lgd_districts-158","name":"Mohla Manpur Ambagarh Chouki","level":"district","source_layer":"lgd_districts","lat":20.5113,"lon":80.7109,"state":"Chhattisgarh"},{"id":"lgd_districts-159","name":"Chandrapur","level":"district","source_layer":"lgd_districts","lat":20.1184,"lon":79.4405,"state":"Maharashtra"},{"id":"lgd_districts-160","name":"Bhandara","level":"district","source_layer":"lgd_districts","lat":21.1156,"lon":79.7632,"state":"Maharashtra"},{"id":"lgd_districts-161","name":"Nagpur","level":"district","source_layer":"lgd_districts","lat":21.1782,"lon":79.085,"state":"Maharashtra"},{"id":"lgd_districts-162","name":"Betul","level":"district","source_layer":"lgd_districts","lat":21.8787,"lon":77.872,"state":"Madhya Pradesh"},{"id":"lgd_districts-163","name":"Amravati","level":"district","source_layer":"lgd_districts","lat":21.1876,"lon":77.5704,"state":"Maharashtra"},{"id":"lgd_districts-164","name":"Yavatmal","level":"district","source_layer":"lgd_districts","lat":20.0835,"lon":78.161,"state":"Maharashtra"},{"id":"lgd_districts-165","name":"Wardha","level":"district","source_layer":"lgd_districts","lat":20.7971,"lon":78.5859,"state":"Maharashtra"},{"id":"lgd_districts-166","name":"Adilabad","level":"district","source_layer":"lgd_districts","lat":19.5199,"lon":78.566,"state":"Telangana"},{"id":"lgd_districts-167","name":"Nirmal","level":"district","source_layer":"lgd_districts","lat":19.1132,"lon":78.3149,"state":"Telangana"},{"id":"lgd_districts-168","name":"Jagitial","level":"district","source_layer":"lgd_districts","lat":18.8322,"lon":78.8779,"state":"Telangana"},{"id":"lgd_districts-169","name":"Rajanna Sircilla","level":"district","source_layer":"lgd_districts","lat":18.4141,"lon":78.7634,"state":"Telangana"},{"id":"lgd_districts-170","name":"Nizamabad","level":"district","source_layer":"lgd_districts","lat":18.7016,"lon":78.2114,"state":"Telangana"},{"id":"lgd_districts-171","name":"Kamareddy","level":"district","source_layer":"lgd_districts","lat":18.3248,"lon":78.0617,"state":"Telangana"},{"id":"lgd_districts-172","name":"Nanded","level":"district","source_layer":"lgd_districts","lat":19.1124,"lon":77.6178,"state":"Maharashtra"},{"id":"lgd_districts-173","name":"Hingoli","level":"district","source_layer":"lgd_districts","lat":19.6375,"lon":77.1005,"state":"Maharashtra"},{"id":"lgd_districts-174","name":"Parbhani","level":"district","source_layer":"lgd_districts","lat":19.2682,"lon":76.6909,"state":"Maharashtra"},{"id":"lgd_districts-175","name":"Latur","level":"district","source_layer":"lgd_districts","lat":18.3738,"lon":76.7595,"state":"Maharashtra"},{"id":"lgd_districts-176","name":"Osmanabad","level":"district","source_layer":"lgd_districts","lat":18.1888,"lon":76.0371,"state":"Maharashtra"},{"id":"lgd_districts-177","name":"Beed","level":"district","source_layer":"lgd_districts","lat":18.9467,"lon":75.8382,"state":"Maharashtra"},{"id":"lgd_districts-178","name":"Jalna","level":"district","source_layer":"lgd_districts","lat":19.8073,"lon":75.9809,"state":"Maharashtra"},{"id":"lgd_districts-179","name":"Jalgaon","level":"district","source_layer":"lgd_districts","lat":20.9325,"lon":75.4879,"state":"Maharashtra"},{"id":"lgd_districts-180","name":"Buldhana","level":"district","source_layer":"lgd_districts","lat":20.5108,"lon":76.4071,"state":"Maharashtra"},{"id":"lgd_districts-181","name":"Washim","level":"district","source_layer":"lgd_districts","lat":20.2337,"lon":77.216,"state":"Maharashtra"},{"id":"lgd_districts-182","name":"Akola","level":"district","source_layer":"lgd_districts","lat":20.748,"lon":77.056,"state":"Maharashtra"},{"id":"lgd_districts-183","name":"Burhanpur","level":"district","source_layer":"lgd_districts","lat":21.3707,"lon":76.3692,"state":"Madhya Pradesh"},{"id":"lgd_districts-184","name":"Barwani","level":"district","source_layer":"lgd_districts","lat":21.7882,"lon":75.0209,"state":"Madhya Pradesh"},{"id":"lgd_districts-185","name":"Nashik","level":"district","source_layer":"lgd_districts","lat":20.2598,"lon":74.0707,"state":"Maharashtra"},{"id":"lgd_districts-186","name":"Dang","level":"district","source_layer":"lgd_districts","lat":20.7985,"lon":73.6984,"state":"Gujarat"},{"id":"lgd_districts-187","name":"Tapi","level":"district","source_layer":"lgd_districts","lat":21.1916,"lon":73.6267,"state":"Gujarat"},{"id":"lgd_districts-188","name":"Dhule","level":"district","source_layer":"lgd_districts","lat":21.1104,"lon":74.6005,"state":"Maharashtra"},{"id":"lgd_districts-189","name":"Nandurbar","level":"district","source_layer":"lgd_districts","lat":21.5499,"lon":74.2166,"state":"Maharashtra"},{"id":"lgd_districts-190","name":"Narmada","level":"district","source_layer":"lgd_districts","lat":21.7369,"lon":73.645,"state":"Gujarat"},{"id":"lgd_districts-191","name":"Surat","level":"district","source_layer":"lgd_districts","lat":21.2689,"lon":73.0711,"state":"Gujarat"},{"id":"lgd_districts-192","name":"Bharuch","level":"district","source_layer":"lgd_districts","lat":21.7878,"lon":72.9496,"state":"Gujarat"},{"id":"lgd_districts-193","name":"Bhavnagar","level":"district","source_layer":"lgd_districts","lat":21.5676,"lon":71.8903,"state":"Gujarat"},{"id":"lgd_districts-194","name":"Dadra And Nagar Haveli","level":"district","source_layer":"lgd_districts","lat":20.1933,"lon":73.0712,"state":"Dadra,Nagar Haveli,Daman & Diu"},{"id":"lgd_districts-195","name":"Valsad","level":"district","source_layer":"lgd_districts","lat":20.4184,"lon":73.1201,"state":"Gujarat"},{"id":"lgd_districts-196","name":"Daman","level":"district","source_layer":"lgd_districts","lat":20.4142,"lon":72.8527,"state":"Dadra,Nagar Haveli,Daman & Diu"},{"id":"lgd_districts-197","name":"Navsari","level":"district","source_layer":"lgd_districts","lat":20.8153,"lon":73.0926,"state":"Gujarat"},{"id":"lgd_districts-198","name":"Thane","level":"district","source_layer":"lgd_districts","lat":19.3611,"lon":73.3195,"state":"Maharashtra"},{"id":"lgd_districts-199","name":"Mumbai Suburban","level":"district","source_layer":"lgd_districts","lat":19.1318,"lon":72.8845,"state":"Maharashtra"},{"id":"lgd_districts-200","name":"Palghar","level":"district","source_layer":"lgd_districts","lat":19.7938,"lon":73.0122,"state":"Maharashtra"},{"id":"lgd_districts-201","name":"Mumbai","level":"district","source_layer":"lgd_districts","lat":18.989,"lon":72.838,"state":"Maharashtra"},{"id":"lgd_districts-202","name":"Raigad","level":"district","source_layer":"lgd_districts","lat":18.5101,"lon":73.2215,"state":"Maharashtra"},{"id":"lgd_districts-203","name":"Pune","level":"district","source_layer":"lgd_districts","lat":18.5711,"lon":74.068,"state":"Maharashtra"},{"id":"lgd_districts-204","name":"Ahmednagar","level":"district","source_layer":"lgd_districts","lat":19.2054,"lon":74.6752,"state":"Maharashtra"},{"id":"lgd_districts-205","name":"Aurangabad","level":"district","source_layer":"lgd_districts","lat":20.0222,"lon":75.2735,"state":"Maharashtra"},{"id":"lgd_districts-206","name":"Satara","level":"district","source_layer":"lgd_districts","lat":17.6699,"lon":74.1727,"state":"Maharashtra"},{"id":"lgd_districts-207","name":"Kolhapur","level":"district","source_layer":"lgd_districts","lat":16.4701,"lon":74.1589,"state":"Maharashtra"},{"id":"lgd_districts-208","name":"Sangli","level":"district","source_layer":"lgd_districts","lat":17.1138,"lon":74.7679,"state":"Maharashtra"},{"id":"lgd_districts-209","name":"Belagavi","level":"district","source_layer":"lgd_districts","lat":16.1217,"lon":74.8239,"state":"Karnataka"},{"id":"lgd_districts-210","name":"Dharwad","level":"district","source_layer":"lgd_districts","lat":15.3902,"lon":75.1523,"state":"Karnataka"},{"id":"lgd_districts-211","name":"Haveri","level":"district","source_layer":"lgd_districts","lat":14.7388,"lon":75.4165,"state":"Karnataka"},{"id":"lgd_districts-212","name":"Uttara Kannada","level":"district","source_layer":"lgd_districts","lat":14.7922,"lon":74.6195,"state":"Karnataka"},{"id":"lgd_districts-213","name":"South Goa","level":"district","source_layer":"lgd_districts","lat":15.2004,"lon":74.1146,"state":"Goa"},{"id":"lgd_districts-214","name":"North Goa","level":"district","source_layer":"lgd_districts","lat":15.5496,"lon":73.9769,"state":"Goa"},{"id":"lgd_districts-215","name":"Sindhudurg","level":"district","source_layer":"lgd_districts","lat":16.1342,"lon":73.7377,"state":"Maharashtra"},{"id":"lgd_districts-216","name":"Ratnagiri","level":"district","source_layer":"lgd_districts","lat":17.2746,"lon":73.4547,"state":"Maharashtra"},{"id":"lgd_districts-217","name":"Gir Somnath","level":"district","source_layer":"lgd_districts","lat":20.9043,"lon":70.7549,"state":"Gujarat"},{"id":"lgd_districts-218","name":"Diu","level":"district","source_layer":"lgd_districts","lat":20.7206,"lon":70.9341,"state":"Dadra,Nagar Haveli,Daman & Diu"},{"id":"lgd_districts-219","name":"Amreli","level":"district","source_layer":"lgd_districts","lat":21.4243,"lon":71.244,"state":"Gujarat"},{"id":"lgd_districts-220","name":"Junagadh","level":"district","source_layer":"lgd_districts","lat":21.3223,"lon":70.4851,"state":"Gujarat"},{"id":"lgd_districts-221","name":"Porbandar","level":"district","source_layer":"lgd_districts","lat":21.6548,"lon":69.7771,"state":"Gujarat"},{"id":"lgd_districts-222","name":"Devbhumi Dwarka","level":"district","source_layer":"lgd_districts","lat":22.1212,"lon":69.4603,"state":"Gujarat"},{"id":"lgd_districts-223","name":"Kachchh","level":"district","source_layer":"lgd_districts","lat":23.6502,"lon":69.941,"state":"Gujarat"},{"id":"lgd_districts-224","name":"Barmer","level":"district","source_layer":"lgd_districts","lat":25.6567,"lon":71.1074,"state":"Rajasthan"},{"id":"lgd_districts-225","name":"Sanchor","level":"district","source_layer":"lgd_districts","lat":24.8855,"lon":71.8273,"state":"Rajasthan"},{"id":"lgd_districts-226","name":"Patan","level":"district","source_layer":"lgd_districts","lat":23.7704,"lon":71.7587,"state":"Gujarat"},{"id":"lgd_districts-227","name":"Morbi","level":"district","source_layer":"lgd_districts","lat":22.835,"lon":70.9035,"state":"Gujarat"},{"id":"lgd_districts-228","name":"Jamnagar","level":"district","source_layer":"lgd_districts","lat":22.285,"lon":70.1957,"state":"Gujarat"},{"id":"lgd_districts-229","name":"Rajkot","level":"district","source_layer":"lgd_districts","lat":22.0244,"lon":70.7453,"state":"Gujarat"},{"id":"lgd_districts-230","name":"Surendranagar","level":"district","source_layer":"lgd_districts","lat":22.7658,"lon":71.5931,"state":"Gujarat"},{"id":"lgd_districts-231","name":"Botad","level":"district","source_layer":"lgd_districts","lat":22.1123,"lon":71.675,"state":"Gujarat"},{"id":"lgd_districts-232","name":"Ahmadabad","level":"district","source_layer":"lgd_districts","lat":22.7569,"lon":72.2436,"state":"Gujarat"},{"id":"lgd_districts-233","name":"Mahesana","level":"district","source_layer":"lgd_districts","lat":23.6095,"lon":72.4667,"state":"Gujarat"},{"id":"lgd_districts-234","name":"Gandhinagar","level":"district","source_layer":"lgd_districts","lat":23.2551,"lon":72.6918,"state":"Gujarat"},{"id":"lgd_districts-235","name":"Arvalli","level":"district","source_layer":"lgd_districts","lat":23.4607,"lon":73.3331,"state":"Gujarat"},{"id":"lgd_districts-236","name":"Mahisagar","level":"district","source_layer":"lgd_districts","lat":23.1876,"lon":73.6471,"state":"Gujarat"},{"id":"lgd_districts-237","name":"Panch Mahals","level":"district","source_layer":"lgd_districts","lat":22.72,"lon":73.6257,"state":"Gujarat"},{"id":"lgd_districts-238","name":"Kheda","level":"district","source_layer":"lgd_districts","lat":22.8375,"lon":72.9505,"state":"Gujarat"},{"id":"lgd_districts-239","name":"Anand","level":"district","source_layer":"lgd_districts","lat":22.4268,"lon":72.7509,"state":"Gujarat"},{"id":"lgd_districts-240","name":"Vadodara","level":"district","source_layer":"lgd_districts","lat":22.2481,"lon":73.2391,"state":"Gujarat"},{"id":"lgd_districts-241","name":"Chhotaudepur","level":"district","source_layer":"lgd_districts","lat":22.2196,"lon":73.8736,"state":"Gujarat"},{"id":"lgd_districts-242","name":"Alirajpur","level":"district","source_layer":"lgd_districts","lat":22.3146,"lon":74.3638,"state":"Madhya Pradesh"},{"id":"lgd_districts-243","name":"Dhar","level":"district","source_layer":"lgd_districts","lat":22.498,"lon":75.104,"state":"Madhya Pradesh"},{"id":"lgd_districts-244","name":"Jhabua","level":"district","source_layer":"lgd_districts","lat":22.8924,"lon":74.6716,"state":"Madhya Pradesh"},{"id":"lgd_districts-245","name":"Ratlam","level":"district","source_layer":"lgd_districts","lat":23.5024,"lon":75.0886,"state":"Madhya Pradesh"},{"id":"lgd_districts-246","name":"Banswara","level":"district","source_layer":"lgd_districts","lat":23.4764,"lon":74.362,"state":"Rajasthan"},{"id":"lgd_districts-247","name":"Dohad","level":"district","source_layer":"lgd_districts","lat":22.8603,"lon":74.1127,"state":"Gujarat"},{"id":"lgd_districts-248","name":"Dungarpur","level":"district","source_layer":"lgd_districts","lat":23.7319,"lon":73.8531,"state":"Rajasthan"},{"id":"lgd_districts-249","name":"Salumbar","level":"district","source_layer":"lgd_districts","lat":24.1973,"lon":74.0247,"state":"Rajasthan"},{"id":"lgd_districts-250","name":"Udaipur","level":"district","source_layer":"lgd_districts","lat":24.479,"lon":73.5981,"state":"Rajasthan"},{"id":"lgd_districts-251","name":"Pratapgarh","level":"district","source_layer":"lgd_districts","lat":24.0292,"lon":74.6503,"state":"Rajasthan"},{"id":"lgd_districts-252","name":"Mandsaur","level":"district","source_layer":"lgd_districts","lat":24.2044,"lon":75.4053,"state":"Madhya Pradesh"},{"id":"lgd_districts-253","name":"Neemuch","level":"district","source_layer":"lgd_districts","lat":24.5923,"lon":75.1421,"state":"Madhya Pradesh"},{"id":"lgd_districts-254","name":"Chittorgarh","level":"district","source_layer":"lgd_districts","lat":24.817,"lon":74.5861,"state":"Rajasthan"},{"id":"lgd_districts-255","name":"Shahpura","level":"district","source_layer":"lgd_districts","lat":25.5645,"lon":74.9713,"state":"Rajasthan"},{"id":"lgd_districts-256","name":"Bhilwara","level":"district","source_layer":"lgd_districts","lat":25.4736,"lon":74.4052,"state":"Rajasthan"},{"id":"lgd_districts-257","name":"Rajsamand","level":"district","source_layer":"lgd_districts","lat":25.2054,"lon":73.8787,"state":"Rajasthan"},{"id":"lgd_districts-258","name":"Pali","level":"district","source_layer":"lgd_districts","lat":25.5838,"lon":73.3848,"state":"Rajasthan"},{"id":"lgd_districts-259","name":"Sabar Kantha","level":"district","source_layer":"lgd_districts","lat":23.8043,"lon":73.0362,"state":"Gujarat"},{"id":"lgd_districts-260","name":"Banas Kantha","level":"district","source_layer":"lgd_districts","lat":24.2874,"lon":72.0262,"state":"Gujarat"},{"id":"lgd_districts-261","name":"Jalore","level":"district","source_layer":"lgd_districts","lat":25.0995,"lon":72.2117,"state":"Rajasthan"},{"id":"lgd_districts-262","name":"Sirohi","level":"district","source_layer":"lgd_districts","lat":24.7618,"lon":72.7768,"state":"Rajasthan"},{"id":"lgd_districts-263","name":"Balotra","level":"district","source_layer":"lgd_districts","lat":25.8745,"lon":72.1295,"state":"Rajasthan"},{"id":"lgd_districts-264","name":"Phalodi","level":"district","source_layer":"lgd_districts","lat":27.1661,"lon":72.4754,"state":"Rajasthan"},{"id":"lgd_districts-265","name":"Jodhpur Gramin","level":"district","source_layer":"lgd_districts","lat":26.4497,"lon":73.0071,"state":"Rajasthan"},{"id":"lgd_districts-266","name":"Jodhpur","level":"district","source_layer":"lgd_districts","lat":26.3441,"lon":73.0568,"state":"Rajasthan"},{"id":"lgd_districts-267","name":"Beawar","level":"district","source_layer":"lgd_districts","lat":26.0948,"lon":74.1916,"state":"Rajasthan"},{"id":"lgd_districts-268","name":"Kekri","level":"district","source_layer":"lgd_districts","lat":26.0283,"lon":75.1287,"state":"Rajasthan"},{"id":"lgd_districts-269","name":"Ajmer","level":"district","source_layer":"lgd_districts","lat":26.4785,"lon":74.7599,"state":"Rajasthan"},{"id":"lgd_districts-270","name":"Didwana Kuchaman","level":"district","source_layer":"lgd_districts","lat":27.1894,"lon":74.6657,"state":"Rajasthan"},{"id":"lgd_districts-271","name":"Dudu","level":"district","source_layer":"lgd_districts","lat":26.6508,"lon":75.3961,"state":"Rajasthan"},{"id":"lgd_districts-272","name":"Nagaur","level":"district","source_layer":"lgd_districts","lat":26.9896,"lon":73.8719,"state":"Rajasthan"},{"id":"lgd_districts-273","name":"Sikar","level":"district","source_layer":"lgd_districts","lat":27.645,"lon":75.1225,"state":"Rajasthan"},{"id":"lgd_districts-274","name":"Churu","level":"district","source_layer":"lgd_districts","lat":28.3451,"lon":74.6964,"state":"Rajasthan"},{"id":"lgd_districts-275","name":"Hanumangarh","level":"district","source_layer":"lgd_districts","lat":29.266,"lon":74.5615,"state":"Rajasthan"},{"id":"lgd_districts-276","name":"Anoopgarh","level":"district","source_layer":"lgd_districts","lat":28.9345,"lon":73.0686,"state":"Rajasthan"},{"id":"lgd_districts-277","name":"Bikaner","level":"district","source_layer":"lgd_districts","lat":28.1028,"lon":73.2251,"state":"Rajasthan"},{"id":"lgd_districts-278","name":"Jaisalmer","level":"district","source_layer":"lgd_districts","lat":27.0752,"lon":70.901,"state":"Rajasthan"},{"id":"lgd_districts-279","name":"Ganderbal","level":"district","source_layer":"lgd_districts","lat":34.2621,"lon":75.0324,"state":"Jammu & Kashmir"},{"id":"lgd_districts-280","name":"Bandipora","level":"district","source_layer":"lgd_districts","lat":34.5873,"lon":74.8761,"state":"Jammu & Kashmir"},{"id":"lgd_districts-281","name":"Muzaffarabad","level":"district","source_layer":"lgd_districts","lat":34.5794,"lon":73.9283,"state":"Jammu & Kashmir"},{"id":"lgd_districts-282","name":"Kupwara","level":"district","source_layer":"lgd_districts","lat":34.5214,"lon":74.2072,"state":"Jammu & Kashmir"},{"id":"lgd_districts-283","name":"Baramulla","level":"district","source_layer":"lgd_districts","lat":34.1582,"lon":74.3025,"state":"Jammu & Kashmir"},{"id":"lgd_districts-284","name":"Poonch","level":"district","source_layer":"lgd_districts","lat":33.784,"lon":74.0178,"state":"Jammu & Kashmir"},{"id":"lgd_districts-285","name":"Kulgam","level":"district","source_layer":"lgd_districts","lat":33.6064,"lon":74.86,"state":"Jammu & Kashmir"},{"id":"lgd_districts-286","name":"Shopian","level":"district","source_layer":"lgd_districts","lat":33.7352,"lon":74.8185,"state":"Jammu & Kashmir"},{"id":"lgd_districts-287","name":"Budgam","level":"district","source_layer":"lgd_districts","lat":33.9182,"lon":74.6346,"state":"Jammu & Kashmir"},{"id":"lgd_districts-288","name":"Srinagar","level":"district","source_layer":"lgd_districts","lat":34.1147,"lon":74.8213,"state":"Jammu & Kashmir"},{"id":"lgd_districts-289","name":"Pulwama","level":"district","source_layer":"lgd_districts","lat":33.9407,"lon":75.0169,"state":"Jammu & Kashmir"},{"id":"lgd_districts-290","name":"Anantnag","level":"district","source_layer":"lgd_districts","lat":33.8265,"lon":75.3247,"state":"Jammu & Kashmir"},{"id":"lgd_districts-291","name":"Udhampur","level":"district","source_layer":"lgd_districts","lat":32.8988,"lon":75.297,"state":"Jammu & Kashmir"},{"id":"lgd_districts-292","name":"Ramban","level":"district","source_layer":"lgd_districts","lat":33.3077,"lon":75.1899,"state":"Jammu & Kashmir"},{"id":"lgd_districts-293","name":"Reasi","level":"district","source_layer":"lgd_districts","lat":33.2389,"lon":74.8314,"state":"Jammu & Kashmir"},{"id":"lgd_districts-294","name":"Jammu","level":"district","source_layer":"lgd_districts","lat":32.805,"lon":74.7469,"state":"Jammu & Kashmir"},{"id":"lgd_districts-295","name":"Samba","level":"district","source_layer":"lgd_districts","lat":32.5817,"lon":75.0905,"state":"Jammu & Kashmir"},{"id":"lgd_districts-296","name":"Gurdaspur","level":"district","source_layer":"lgd_districts","lat":31.9165,"lon":75.291,"state":"Punjab"},{"id":"lgd_districts-297","name":"Amritsar","level":"district","source_layer":"lgd_districts","lat":31.7056,"lon":74.8994,"state":"Punjab"},{"id":"lgd_districts-298","name":"Rajouri","level":"district","source_layer":"lgd_districts","lat":33.2782,"lon":74.3809,"state":"Jammu & Kashmir"},{"id":"lgd_districts-299","name":"Mirpur","level":"district","source_layer":"lgd_districts","lat":33.2422,"lon":73.9286,"state":"Jammu & Kashmir"},{"id":"lgd_districts-300","name":"Ganganagar","level":"district","source_layer":"lgd_districts","lat":29.5516,"lon":73.8102,"state":"Rajasthan"},{"id":"lgd_districts-301","name":"Sri Muktsar Sahib","level":"district","source_layer":"lgd_districts","lat":30.2998,"lon":74.5384,"state":"Punjab"},{"id":"lgd_districts-302","name":"Fazilka","level":"district","source_layer":"lgd_districts","lat":30.277,"lon":74.1636,"state":"Punjab"},{"id":"lgd_districts-303","name":"Faridkot","level":"district","source_layer":"lgd_districts","lat":30.6135,"lon":74.7773,"state":"Punjab"},{"id":"lgd_districts-304","name":"Ferozepur","level":"district","source_layer":"lgd_districts","lat":30.913,"lon":74.703,"state":"Punjab"},{"id":"lgd_districts-305","name":"Tarn Taran","level":"district","source_layer":"lgd_districts","lat":31.3365,"lon":74.8404,"state":"Punjab"},{"id":"lgd_districts-306","name":"Kapurthala","level":"district","source_layer":"lgd_districts","lat":31.3726,"lon":75.3163,"state":"Punjab"},{"id":"lgd_districts-307","name":"Moga","level":"district","source_layer":"lgd_districts","lat":30.7618,"lon":75.1703,"state":"Punjab"},{"id":"lgd_districts-308","name":"Bathinda","level":"district","source_layer":"lgd_districts","lat":30.1832,"lon":75.0403,"state":"Punjab"},{"id":"lgd_districts-309","name":"Sirsa","level":"district","source_layer":"lgd_districts","lat":29.6156,"lon":74.9008,"state":"Haryana"},{"id":"lgd_districts-310","name":"Mansa","level":"district","source_layer":"lgd_districts","lat":29.9073,"lon":75.4385,"state":"Punjab"},{"id":"lgd_districts-311","name":"Fatehabad","level":"district","source_layer":"lgd_districts","lat":29.5689,"lon":75.577,"state":"Haryana"},{"id":"lgd_districts-312","name":"Patiala","level":"district","source_layer":"lgd_districts","lat":30.2833,"lon":76.3523,"state":"Punjab"},{"id":"lgd_districts-313","name":"Sangrur","level":"district","source_layer":"lgd_districts","lat":30.1342,"lon":75.8647,"state":"Punjab"},{"id":"lgd_districts-314","name":"Barnala","level":"district","source_layer":"lgd_districts","lat":30.3878,"lon":75.4986,"state":"Punjab"},{"id":"lgd_districts-315","name":"Malerkotla","level":"district","source_layer":"lgd_districts","lat":30.5405,"lon":75.8892,"state":"Punjab"},{"id":"lgd_districts-316","name":"Ludhiana","level":"district","source_layer":"lgd_districts","lat":30.8054,"lon":75.8327,"state":"Punjab"},{"id":"lgd_districts-317","name":"Jalandhar","level":"district","source_layer":"lgd_districts","lat":31.2127,"lon":75.5659,"state":"Punjab"},{"id":"lgd_districts-318","name":"Shahid Bhagat Singh Nagar","level":"district","source_layer":"lgd_districts","lat":31.11,"lon":76.1543,"state":"Punjab"},{"id":"lgd_districts-319","name":"Fatehgarh Sahib","level":"district","source_layer":"lgd_districts","lat":30.6434,"lon":76.375,"state":"Punjab"},{"id":"lgd_districts-320","name":"S.A.S Nagar","level":"district","source_layer":"lgd_districts","lat":30.6809,"lon":76.7398,"state":"Punjab"},{"id":"lgd_districts-321","name":"Chandigarh","level":"district","source_layer":"lgd_districts","lat":30.7294,"lon":76.7806,"state":"Chandigarh"},{"id":"lgd_districts-322","name":"Rupnagar","level":"district","source_layer":"lgd_districts","lat":31.062,"lon":76.4876,"state":"Punjab"},{"id":"lgd_districts-323","name":"Solan","level":"district","source_layer":"lgd_districts","lat":31.0453,"lon":76.9096,"state":"Himachal Pradesh"},{"id":"lgd_districts-324","name":"Panchkula","level":"district","source_layer":"lgd_districts","lat":30.6865,"lon":76.9775,"state":"Haryana"},{"id":"lgd_districts-325","name":"Ambala","level":"district","source_layer":"lgd_districts","lat":30.3326,"lon":76.9451,"state":"Haryana"},{"id":"lgd_districts-326","name":"Kurukshetra","level":"district","source_layer":"lgd_districts","lat":30.0387,"lon":76.7849,"state":"Haryana"},{"id":"lgd_districts-327","name":"Kaithal","level":"district","source_layer":"lgd_districts","lat":29.8112,"lon":76.4139,"state":"Haryana"},{"id":"lgd_districts-328","name":"Karnal","level":"district","source_layer":"lgd_districts","lat":29.689,"lon":76.8878,"state":"Haryana"},{"id":"lgd_districts-329","name":"Saharanpur","level":"district","source_layer":"lgd_districts","lat":29.951,"lon":77.5468,"state":"Uttar Pradesh"},{"id":"lgd_districts-330","name":"Yamunanagar","level":"district","source_layer":"lgd_districts","lat":30.2343,"lon":77.3023,"state":"Haryana"},{"id":"lgd_districts-331","name":"Haridwar","level":"district","source_layer":"lgd_districts","lat":29.8814,"lon":77.996,"state":"Uttarakhand"},{"id":"lgd_districts-332","name":"Pauri Garhwal","level":"district","source_layer":"lgd_districts","lat":29.88,"lon":78.7638,"state":"Uttarakhand"},{"id":"lgd_districts-333","name":"Tehri Garhwal","level":"district","source_layer":"lgd_districts","lat":30.4365,"lon":78.5355,"state":"Uttarakhand"},{"id":"lgd_districts-334","name":"Rudra Prayag","level":"district","source_layer":"lgd_districts","lat":30.5069,"lon":79.0525,"state":"Uttarakhand"},{"id":"lgd_districts-335","name":"Uttar Kashi","level":"district","source_layer":"lgd_districts","lat":30.9719,"lon":78.607,"state":"Uttarakhand"},{"id":"lgd_districts-336","name":"Dehradun","level":"district","source_layer":"lgd_districts","lat":30.4722,"lon":77.9675,"state":"Uttarakhand"},{"id":"lgd_districts-337","name":"Sirmaur","level":"district","source_layer":"lgd_districts","lat":30.6668,"lon":77.4309,"state":"Himachal Pradesh"},{"id":"lgd_districts-338","name":"Shimla","level":"district","source_layer":"lgd_districts","lat":31.1974,"lon":77.632,"state":"Himachal Pradesh"},{"id":"lgd_districts-339","name":"Kullu","level":"district","source_layer":"lgd_districts","lat":31.9022,"lon":77.3989,"state":"Himachal Pradesh"},{"id":"lgd_districts-340","name":"Kinnaur","level":"district","source_layer":"lgd_districts","lat":31.5953,"lon":78.414,"state":"Himachal Pradesh"},{"id":"lgd_districts-341","name":"Lahul And Spiti","level":"district","source_layer":"lgd_districts","lat":32.4801,"lon":77.6167,"state":"Himachal Pradesh"},{"id":"lgd_districts-342","name":"Mandi","level":"district","source_layer":"lgd_districts","lat":31.6368,"lon":76.9916,"state":"Himachal Pradesh"},{"id":"lgd_districts-343","name":"Bilaspur","level":"district","source_layer":"lgd_districts","lat":31.371,"lon":76.6702,"state":"Himachal Pradesh"},{"id":"lgd_districts-344","name":"Hamirpur","level":"district","source_layer":"lgd_districts","lat":31.6671,"lon":76.5255,"state":"Himachal Pradesh"},{"id":"lgd_districts-345","name":"Kangra","level":"district","source_layer":"lgd_districts","lat":32.1083,"lon":76.3156,"state":"Himachal Pradesh"},{"id":"lgd_districts-346","name":"Una","level":"district","source_layer":"lgd_districts","lat":31.5793,"lon":76.2099,"state":"Himachal Pradesh"},{"id":"lgd_districts-347","name":"Hoshiarpur","level":"district","source_layer":"lgd_districts","lat":31.625,"lon":75.8579,"state":"Punjab"},{"id":"lgd_districts-348","name":"Pathankot","level":"district","source_layer":"lgd_districts","lat":32.2963,"lon":75.6162,"state":"Punjab"},{"id":"lgd_districts-349","name":"Kathua","level":"district","source_layer":"lgd_districts","lat":32.5746,"lon":75.5834,"state":"Jammu & Kashmir"},{"id":"lgd_districts-350","name":"Chamba","level":"district","source_layer":"lgd_districts","lat":32.6748,"lon":76.3482,"state":"Himachal Pradesh"},{"id":"lgd_districts-351","name":"Doda","level":"district","source_layer":"lgd_districts","lat":33.0933,"lon":75.7147,"state":"Jammu & Kashmir"},{"id":"lgd_districts-352","name":"Kishtwar","level":"district","source_layer":"lgd_districts","lat":33.5499,"lon":75.971,"state":"Jammu & Kashmir"},{"id":"lgd_districts-353","name":"Kargil","level":"district","source_layer":"lgd_districts","lat":33.9028,"lon":76.4946,"state":"Ladakh"},{"id":"lgd_districts-354","name":"Leh Ladakh","level":"district","source_layer":"lgd_districts","lat":35.0439,"lon":76.8213,"state":"Ladakh"},{"id":"lgd_districts-355","name":"Chamoli","level":"district","source_layer":"lgd_districts","lat":30.4951,"lon":79.577,"state":"Uttarakhand"},{"id":"lgd_districts-356","name":"Bageshwar","level":"district","source_layer":"lgd_districts","lat":29.9964,"lon":79.8589,"state":"Uttarakhand"},{"id":"lgd_districts-357","name":"Almora","level":"district","source_layer":"lgd_districts","lat":29.6908,"lon":79.504,"state":"Uttarakhand"},{"id":"lgd_districts-358","name":"Pithoragarh","level":"district","source_layer":"lgd_districts","lat":30.114,"lon":80.3456,"state":"Uttarakhand"},{"id":"lgd_districts-359","name":"Bahraich","level":"district","source_layer":"lgd_districts","lat":27.6982,"lon":81.4928,"state":"Uttar Pradesh"},{"id":"lgd_districts-360","name":"Shravasti","level":"district","source_layer":"lgd_districts","lat":27.7185,"lon":81.9034,"state":"Uttar Pradesh"},{"id":"lgd_districts-361","name":"Balrampur","level":"district","source_layer":"lgd_districts","lat":27.4837,"lon":82.3752,"state":"Uttar Pradesh"},{"id":"lgd_districts-362","name":"Gonda","level":"district","source_layer":"lgd_districts","lat":27.0834,"lon":82.0253,"state":"Uttar Pradesh"},{"id":"lgd_districts-363","name":"Basti","level":"district","source_layer":"lgd_districts","lat":26.82,"lon":82.6257,"state":"Uttar Pradesh"},{"id":"lgd_districts-364","name":"Ambedkar Nagar","level":"district","source_layer":"lgd_districts","lat":26.4186,"lon":82.6661,"state":"Uttar Pradesh"},{"id":"lgd_districts-365","name":"Jaunpur","level":"district","source_layer":"lgd_districts","lat":25.7463,"lon":82.575,"state":"Uttar Pradesh"},{"id":"lgd_districts-366","name":"Sultanpur","level":"district","source_layer":"lgd_districts","lat":26.2619,"lon":82.1939,"state":"Uttar Pradesh"},{"id":"lgd_districts-367","name":"Ayodhya","level":"district","source_layer":"lgd_districts","lat":26.6576,"lon":81.9971,"state":"Uttar Pradesh"},{"id":"lgd_districts-368","name":"Amethi","level":"district","source_layer":"lgd_districts","lat":26.3238,"lon":81.6687,"state":"Uttar Pradesh"},{"id":"lgd_districts-369","name":"Pratapgarh","level":"district","source_layer":"lgd_districts","lat":25.8727,"lon":81.8291,"state":"Uttar Pradesh"},{"id":"lgd_districts-370","name":"Rae Bareli","level":"district","source_layer":"lgd_districts","lat":26.2037,"lon":81.1909,"state":"Uttar Pradesh"},{"id":"lgd_districts-371","name":"Barabanki","level":"district","source_layer":"lgd_districts","lat":26.939,"lon":81.3324,"state":"Uttar Pradesh"},{"id":"lgd_districts-372","name":"Sitapur","level":"district","source_layer":"lgd_districts","lat":27.5171,"lon":80.8522,"state":"Uttar Pradesh"},{"id":"lgd_districts-373","name":"Hardoi","level":"district","source_layer":"lgd_districts","lat":27.3303,"lon":80.1616,"state":"Uttar Pradesh"},{"id":"lgd_districts-374","name":"Lucknow","level":"district","source_layer":"lgd_districts","lat":26.842,"lon":80.9055,"state":"Uttar Pradesh"},{"id":"lgd_districts-375","name":"Unnao","level":"district","source_layer":"lgd_districts","lat":26.6094,"lon":80.5606,"state":"Uttar Pradesh"},{"id":"lgd_districts-376","name":"Fatehpur","level":"district","source_layer":"lgd_districts","lat":25.8749,"lon":80.8077,"state":"Uttar Pradesh"},{"id":"lgd_districts-377","name":"Kanpur Nagar","level":"district","source_layer":"lgd_districts","lat":26.3911,"lon":80.2082,"state":"Uttar Pradesh"},{"id":"lgd_districts-378","name":"Kanpur Dehat","level":"district","source_layer":"lgd_districts","lat":26.4396,"lon":79.8529,"state":"Uttar Pradesh"},{"id":"lgd_districts-379","name":"Hamirpur","level":"district","source_layer":"lgd_districts","lat":25.751,"lon":79.8653,"state":"Uttar Pradesh"},{"id":"lgd_districts-380","name":"Jalaun","level":"district","source_layer":"lgd_districts","lat":26.0912,"lon":79.3858,"state":"Uttar Pradesh"},{"id":"lgd_districts-381","name":"Auraiya","level":"district","source_layer":"lgd_districts","lat":26.6582,"lon":79.4791,"state":"Uttar Pradesh"},{"id":"lgd_districts-382","name":"Kannauj","level":"district","source_layer":"lgd_districts","lat":27.0136,"lon":79.6887,"state":"Uttar Pradesh"},{"id":"lgd_districts-383","name":"Farrukhabad","level":"district","source_layer":"lgd_districts","lat":27.4313,"lon":79.4587,"state":"Uttar Pradesh"},{"id":"lgd_districts-384","name":"Bareilly","level":"district","source_layer":"lgd_districts","lat":28.458,"lon":79.4314,"state":"Uttar Pradesh"},{"id":"lgd_districts-385","name":"Pilibhit","level":"district","source_layer":"lgd_districts","lat":28.5308,"lon":79.9946,"state":"Uttar Pradesh"},{"id":"lgd_districts-386","name":"Shahjahanpur","level":"district","source_layer":"lgd_districts","lat":27.9508,"lon":79.8221,"state":"Uttar Pradesh"},{"id":"lgd_districts-387","name":"Kheri","level":"district","source_layer":"lgd_districts","lat":28.121,"lon":80.6669,"state":"Uttar Pradesh"},{"id":"lgd_districts-388","name":"Champawat","level":"district","source_layer":"lgd_districts","lat":29.2811,"lon":80.0691,"state":"Uttarakhand"},{"id":"lgd_districts-389","name":"Rampur","level":"district","source_layer":"lgd_districts","lat":28.8098,"lon":79.1151,"state":"Uttar Pradesh"},{"id":"lgd_districts-390","name":"Udam Singh Nagar","level":"district","source_layer":"lgd_districts","lat":29.0419,"lon":79.4708,"state":"Uttarakhand"},{"id":"lgd_districts-391","name":"Nainital","level":"district","source_layer":"lgd_districts","lat":29.3173,"lon":79.4632,"state":"Uttarakhand"},{"id":"lgd_districts-392","name":"Bijnor","level":"district","source_layer":"lgd_districts","lat":29.3862,"lon":78.3889,"state":"Uttar Pradesh"},{"id":"lgd_districts-393","name":"Amroha","level":"district","source_layer":"lgd_districts","lat":28.8356,"lon":78.3682,"state":"Uttar Pradesh"},{"id":"lgd_districts-394","name":"Moradabad","level":"district","source_layer":"lgd_districts","lat":28.8856,"lon":78.8029,"state":"Uttar Pradesh"},{"id":"lgd_districts-395","name":"Budaun","level":"district","source_layer":"lgd_districts","lat":28.0779,"lon":79.0416,"state":"Uttar Pradesh"},{"id":"lgd_districts-396","name":"Kasganj","level":"district","source_layer":"lgd_districts","lat":27.7733,"lon":78.8461,"state":"Uttar Pradesh"},{"id":"lgd_districts-397","name":"Sambhal","level":"district","source_layer":"lgd_districts","lat":28.4519,"lon":78.5581,"state":"Uttar Pradesh"},{"id":"lgd_districts-398","name":"Bulandshahr","level":"district","source_layer":"lgd_districts","lat":28.3625,"lon":78.0145,"state":"Uttar Pradesh"},{"id":"lgd_districts-399","name":"Aligarh","level":"district","source_layer":"lgd_districts","lat":27.9265,"lon":78.0653,"state":"Uttar Pradesh"},{"id":"lgd_districts-400","name":"Palwal","level":"district","source_layer":"lgd_districts","lat":28.063,"lon":77.3349,"state":"Haryana"},{"id":"lgd_districts-401","name":"Gautam Buddha Nagar","level":"district","source_layer":"lgd_districts","lat":28.3941,"lon":77.556,"state":"Uttar Pradesh"},{"id":"lgd_districts-402","name":"Faridabad","level":"district","source_layer":"lgd_districts","lat":28.3522,"lon":77.3428,"state":"Haryana"},{"id":"lgd_districts-403","name":"Ghaziabad","level":"district","source_layer":"lgd_districts","lat":28.7677,"lon":77.476,"state":"Uttar Pradesh"},{"id":"lgd_districts-404","name":"Hapur","level":"district","source_layer":"lgd_districts","lat":28.7224,"lon":77.8931,"state":"Uttar Pradesh"},{"id":"lgd_districts-405","name":"Meerut","level":"district","source_layer":"lgd_districts","lat":29.0364,"lon":77.7827,"state":"Uttar Pradesh"},{"id":"lgd_districts-406","name":"Muzaffarnagar","level":"district","source_layer":"lgd_districts","lat":29.4156,"lon":77.7253,"state":"Uttar Pradesh"},{"id":"lgd_districts-407","name":"Baghpat","level":"district","source_layer":"lgd_districts","lat":29.0569,"lon":77.3085,"state":"Uttar Pradesh"},{"id":"lgd_districts-408","name":"Shamli","level":"district","source_layer":"lgd_districts","lat":29.5003,"lon":77.2824,"state":"Uttar Pradesh"},{"id":"lgd_districts-409","name":"Panipat","level":"district","source_layer":"lgd_districts","lat":29.338,"lon":76.9281,"state":"Haryana"},{"id":"lgd_districts-410","name":"Central","level":"district","source_layer":"lgd_districts","lat":28.6816,"lon":77.2242,"state":"Delhi"},{"id":"lgd_districts-411","name":"North East","level":"district","source_layer":"lgd_districts","lat":28.7226,"lon":77.2566,"state":"Delhi"},{"id":"lgd_districts-412","name":"Shahdara","level":"district","source_layer":"lgd_districts","lat":28.6772,"lon":77.2987,"state":"Delhi"},{"id":"lgd_districts-413","name":"East","level":"district","source_layer":"lgd_districts","lat":28.6221,"lon":77.3046,"state":"Delhi"},{"id":"lgd_districts-414","name":"New Delhi","level":"district","source_layer":"lgd_districts","lat":28.5772,"lon":77.1486,"state":"Delhi"},{"id":"lgd_districts-415","name":"North","level":"district","source_layer":"lgd_districts","lat":28.7935,"lon":77.1077,"state":"Delhi"},{"id":"lgd_districts-416","name":"North West","level":"district","source_layer":"lgd_districts","lat":28.7253,"lon":77.0431,"state":"Delhi"},{"id":"lgd_districts-417","name":"West","level":"district","source_layer":"lgd_districts","lat":28.6554,"lon":77.064,"state":"Delhi"},{"id":"lgd_districts-418","name":"South West","level":"district","source_layer":"lgd_districts","lat":28.5762,"lon":76.9677,"state":"Delhi"},{"id":"lgd_districts-419","name":"Jhajjar","level":"district","source_layer":"lgd_districts","lat":28.6048,"lon":76.6482,"state":"Haryana"},{"id":"lgd_districts-420","name":"Rohtak","level":"district","source_layer":"lgd_districts","lat":28.9121,"lon":76.5303,"state":"Haryana"},{"id":"lgd_districts-421","name":"Sonipat","level":"district","source_layer":"lgd_districts","lat":29.0565,"lon":76.8748,"state":"Haryana"},{"id":"lgd_districts-422","name":"Jind","level":"district","source_layer":"lgd_districts","lat":29.4352,"lon":76.3036,"state":"Haryana"},{"id":"lgd_districts-423","name":"Hisar","level":"district","source_layer":"lgd_districts","lat":29.2117,"lon":75.8224,"state":"Haryana"},{"id":"lgd_districts-424","name":"Bhiwani","level":"district","source_layer":"lgd_districts","lat":28.78,"lon":75.8904,"state":"Haryana"},{"id":"lgd_districts-425","name":"Charki Dadri","level":"district","source_layer":"lgd_districts","lat":28.5768,"lon":76.1535,"state":"Haryana"},{"id":"lgd_districts-426","name":"Mahendragarh","level":"district","source_layer":"lgd_districts","lat":28.171,"lon":76.1383,"state":"Haryana"},{"id":"lgd_districts-427","name":"Jhunjhunu","level":"district","source_layer":"lgd_districts","lat":28.1446,"lon":75.507,"state":"Rajasthan"},{"id":"lgd_districts-428","name":"Neem Ka Thana","level":"district","source_layer":"lgd_districts","lat":27.7186,"lon":75.7581,"state":"Rajasthan"},{"id":"lgd_districts-429","name":"Kotputli-Behror","level":"district","source_layer":"lgd_districts","lat":27.6985,"lon":76.2425,"state":"Rajasthan"},{"id":"lgd_districts-430","name":"Khairthal-Tijara","level":"district","source_layer":"lgd_districts","lat":27.9225,"lon":76.7093,"state":"Rajasthan"},{"id":"lgd_districts-431","name":"Rewari","level":"district","source_layer":"lgd_districts","lat":28.2411,"lon":76.5366,"state":"Haryana"},{"id":"lgd_districts-432","name":"Gurugram","level":"district","source_layer":"lgd_districts","lat":28.369,"lon":76.9403,"state":"Haryana"},{"id":"lgd_districts-433","name":"South","level":"district","source_layer":"lgd_districts","lat":28.4812,"lon":77.1905,"state":"Delhi"},{"id":"lgd_districts-434","name":"South East","level":"district","source_layer":"lgd_districts","lat":28.5423,"lon":77.2727,"state":"Delhi"},{"id":"lgd_districts-435","name":"Nuh","level":"district","source_layer":"lgd_districts","lat":27.9852,"lon":77.0502,"state":"Haryana"},{"id":"lgd_districts-436","name":"Deeg","level":"district","source_layer":"lgd_districts","lat":27.5127,"lon":77.2194,"state":"Rajasthan"},{"id":"lgd_districts-437","name":"Dausa","level":"district","source_layer":"lgd_districts","lat":26.8575,"lon":76.5103,"state":"Rajasthan"},{"id":"lgd_districts-438","name":"Alwar","level":"district","source_layer":"lgd_districts","lat":27.3786,"lon":76.6445,"state":"Rajasthan"},{"id":"lgd_districts-439","name":"Jaipur","level":"district","source_layer":"lgd_districts","lat":26.9572,"lon":75.7416,"state":"Rajasthan"},{"id":"lgd_districts-440","name":"Jaipur Gramin","level":"district","source_layer":"lgd_districts","lat":26.9893,"lon":75.7644,"state":"Rajasthan"},{"id":"lgd_districts-441","name":"Tonk","level":"district","source_layer":"lgd_districts","lat":26.1589,"lon":75.6983,"state":"Rajasthan"},{"id":"lgd_districts-442","name":"Sawai Madhopur","level":"district","source_layer":"lgd_districts","lat":26.1066,"lon":76.3942,"state":"Rajasthan"},{"id":"lgd_districts-443","name":"Gangapurcity","level":"district","source_layer":"lgd_districts","lat":26.6328,"lon":76.6985,"state":"Rajasthan"},{"id":"lgd_districts-444","name":"Karauli","level":"district","source_layer":"lgd_districts","lat":26.446,"lon":77.0188,"state":"Rajasthan"},{"id":"lgd_districts-445","name":"Sheopur","level":"district","source_layer":"lgd_districts","lat":25.754,"lon":77.0069,"state":"Madhya Pradesh"},{"id":"lgd_districts-446","name":"Gwalior","level":"district","source_layer":"lgd_districts","lat":26.0396,"lon":78.1461,"state":"Madhya Pradesh"},{"id":"lgd_districts-447","name":"Morena","level":"district","source_layer":"lgd_districts","lat":26.413,"lon":77.8681,"state":"Madhya Pradesh"},{"id":"lgd_districts-448","name":"Dholpur","level":"district","source_layer":"lgd_districts","lat":26.6809,"lon":77.7021,"state":"Rajasthan"},{"id":"lgd_districts-449","name":"Bharatpur","level":"district","source_layer":"lgd_districts","lat":27.0486,"lon":77.3196,"state":"Rajasthan"},{"id":"lgd_districts-450","name":"Mathura","level":"district","source_layer":"lgd_districts","lat":27.5975,"lon":77.6259,"state":"Uttar Pradesh"},{"id":"lgd_districts-451","name":"Hathras","level":"district","source_layer":"lgd_districts","lat":27.5817,"lon":78.1644,"state":"Uttar Pradesh"},{"id":"lgd_districts-452","name":"Agra","level":"district","source_layer":"lgd_districts","lat":27.0363,"lon":78.0764,"state":"Uttar Pradesh"},{"id":"lgd_districts-453","name":"Firozabad","level":"district","source_layer":"lgd_districts","lat":27.1872,"lon":78.5264,"state":"Uttar Pradesh"},{"id":"lgd_districts-454","name":"Etah","level":"district","source_layer":"lgd_districts","lat":27.5155,"lon":78.7174,"state":"Uttar Pradesh"},{"id":"lgd_districts-455","name":"Mainpuri","level":"district","source_layer":"lgd_districts","lat":27.1824,"lon":79.0521,"state":"Uttar Pradesh"},{"id":"lgd_districts-456","name":"Etawah","level":"district","source_layer":"lgd_districts","lat":26.7641,"lon":79.0949,"state":"Uttar Pradesh"},{"id":"lgd_districts-457","name":"Bhind","level":"district","source_layer":"lgd_districts","lat":26.422,"lon":78.7212,"state":"Madhya Pradesh"},{"id":"lgd_districts-458","name":"Niwari","level":"district","source_layer":"lgd_districts","lat":25.2851,"lon":78.7488,"state":"Madhya Pradesh"},{"id":"lgd_districts-459","name":"Jhansi","level":"district","source_layer":"lgd_districts","lat":25.5081,"lon":78.9509,"state":"Uttar Pradesh"},{"id":"lgd_districts-460","name":"Datia","level":"district","source_layer":"lgd_districts","lat":25.8404,"lon":78.6139,"state":"Madhya Pradesh"},{"id":"lgd_districts-461","name":"Tikamgarh","level":"district","source_layer":"lgd_districts","lat":24.8832,"lon":79.0161,"state":"Madhya Pradesh"},{"id":"lgd_districts-462","name":"Lalitpur","level":"district","source_layer":"lgd_districts","lat":24.6535,"lon":78.562,"state":"Uttar Pradesh"},{"id":"lgd_districts-463","name":"Ashoknagar","level":"district","source_layer":"lgd_districts","lat":24.6094,"lon":77.8754,"state":"Madhya Pradesh"},{"id":"lgd_districts-464","name":"Vidisha","level":"district","source_layer":"lgd_districts","lat":23.8924,"lon":77.813,"state":"Madhya Pradesh"},{"id":"lgd_districts-465","name":"Shivpuri","level":"district","source_layer":"lgd_districts","lat":25.3655,"lon":77.8054,"state":"Madhya Pradesh"},{"id":"lgd_districts-466","name":"Baran","level":"district","source_layer":"lgd_districts","lat":24.9956,"lon":76.7478,"state":"Rajasthan"},{"id":"lgd_districts-467","name":"Bundi","level":"district","source_layer":"lgd_districts","lat":25.4856,"lon":75.7906,"state":"Rajasthan"},{"id":"lgd_districts-468","name":"Kota","level":"district","source_layer":"lgd_districts","lat":25.1093,"lon":76.1061,"state":"Rajasthan"},{"id":"lgd_districts-469","name":"Jhalawar","level":"district","source_layer":"lgd_districts","lat":24.336,"lon":76.1934,"state":"Rajasthan"},{"id":"lgd_districts-470","name":"Agar Malwa","level":"district","source_layer":"lgd_districts","lat":23.8265,"lon":76.071,"state":"Madhya Pradesh"},{"id":"lgd_districts-471","name":"Rajgarh","level":"district","source_layer":"lgd_districts","lat":23.8612,"lon":76.7324,"state":"Madhya Pradesh"},{"id":"lgd_districts-472","name":"Guna","level":"district","source_layer":"lgd_districts","lat":24.5559,"lon":77.1986,"state":"Madhya Pradesh"},{"id":"lgd_districts-473","name":"Sehore","level":"district","source_layer":"lgd_districts","lat":22.9876,"lon":77.1274,"state":"Madhya Pradesh"},{"id":"lgd_districts-474","name":"Shajapur","level":"district","source_layer":"lgd_districts","lat":23.384,"lon":76.5595,"state":"Madhya Pradesh"},{"id":"lgd_districts-475","name":"Ujjain","level":"district","source_layer":"lgd_districts","lat":23.3309,"lon":75.669,"state":"Madhya Pradesh"},{"id":"lgd_districts-476","name":"Indore","level":"district","source_layer":"lgd_districts","lat":22.7131,"lon":75.7822,"state":"Madhya Pradesh"},{"id":"lgd_districts-477","name":"Khargone","level":"district","source_layer":"lgd_districts","lat":21.9186,"lon":75.7715,"state":"Madhya Pradesh"},{"id":"lgd_districts-478","name":"East Nimar","level":"district","source_layer":"lgd_districts","lat":21.9352,"lon":76.5684,"state":"Madhya Pradesh"},{"id":"lgd_districts-479","name":"Dewas","level":"district","source_layer":"lgd_districts","lat":22.7442,"lon":76.4569,"state":"Madhya Pradesh"},{"id":"lgd_districts-480","name":"Harda","level":"district","source_layer":"lgd_districts","lat":22.2324,"lon":77.1235,"state":"Madhya Pradesh"},{"id":"lgd_districts-481","name":"Narmadapuram","level":"district","source_layer":"lgd_districts","lat":22.5907,"lon":77.9907,"state":"Madhya Pradesh"},{"id":"lgd_districts-482","name":"Bhopal","level":"district","source_layer":"lgd_districts","lat":23.4702,"lon":77.3908,"state":"Madhya Pradesh"},{"id":"lgd_districts-483","name":"Raisen","level":"district","source_layer":"lgd_districts","lat":23.2201,"lon":78.1206,"state":"Madhya Pradesh"},{"id":"lgd_districts-484","name":"Sagar","level":"district","source_layer":"lgd_districts","lat":23.85,"lon":78.7597,"state":"Madhya Pradesh"},{"id":"lgd_districts-485","name":"Narsinghpur","level":"district","source_layer":"lgd_districts","lat":22.9362,"lon":79.0879,"state":"Madhya Pradesh"},{"id":"lgd_districts-486","name":"Chhindwara","level":"district","source_layer":"lgd_districts","lat":22.1225,"lon":78.8541,"state":"Madhya Pradesh"},{"id":"lgd_districts-487","name":"Seoni","level":"district","source_layer":"lgd_districts","lat":22.317,"lon":79.6892,"state":"Madhya Pradesh"},{"id":"lgd_districts-488","name":"Mandla","level":"district","source_layer":"lgd_districts","lat":22.6393,"lon":80.5122,"state":"Madhya Pradesh"},{"id":"lgd_districts-489","name":"Umaria","level":"district","source_layer":"lgd_districts","lat":23.5628,"lon":80.9732,"state":"Madhya Pradesh"},{"id":"lgd_districts-490","name":"Katni","level":"district","source_layer":"lgd_districts","lat":23.753,"lon":80.4015,"state":"Madhya Pradesh"},{"id":"lgd_districts-491","name":"Jabalpur","level":"district","source_layer":"lgd_districts","lat":23.234,"lon":79.9759,"state":"Madhya Pradesh"},{"id":"lgd_districts-492","name":"Damoh","level":"district","source_layer":"lgd_districts","lat":23.8123,"lon":79.5268,"state":"Madhya Pradesh"},{"id":"lgd_districts-493","name":"Chhatarpur","level":"district","source_layer":"lgd_districts","lat":24.7993,"lon":79.6646,"state":"Madhya Pradesh"},{"id":"lgd_districts-494","name":"Mahoba","level":"district","source_layer":"lgd_districts","lat":25.3673,"lon":79.7343,"state":"Uttar Pradesh"},{"id":"lgd_districts-495","name":"Banda","level":"district","source_layer":"lgd_districts","lat":25.4709,"lon":80.5574,"state":"Uttar Pradesh"},{"id":"lgd_districts-496","name":"Satna","level":"district","source_layer":"lgd_districts","lat":24.5295,"lon":80.8322,"state":"Madhya Pradesh"},{"id":"lgd_districts-497","name":"Panna","level":"district","source_layer":"lgd_districts","lat":24.4164,"lon":80.188,"state":"Madhya Pradesh"},{"id":"lgd_districts-498","name":"Sidhi","level":"district","source_layer":"lgd_districts","lat":24.2206,"lon":81.834,"state":"Madhya Pradesh"},{"id":"lgd_districts-499","name":"Rewa","level":"district","source_layer":"lgd_districts","lat":24.7553,"lon":81.5874,"state":"Madhya Pradesh"},{"id":"lgd_districts-500","name":"Chitrakoot","level":"district","source_layer":"lgd_districts","lat":25.2062,"lon":81.0775,"state":"Uttar Pradesh"},{"id":"lgd_districts-501","name":"Kaushambi","level":"district","source_layer":"lgd_districts","lat":25.4985,"lon":81.415,"state":"Uttar Pradesh"},{"id":"lgd_districts-502","name":"Prayagraj","level":"district","source_layer":"lgd_districts","lat":25.304,"lon":81.9602,"state":"Uttar Pradesh"},{"id":"lgd_districts-503","name":"Bhadohi","level":"district","source_layer":"lgd_districts","lat":25.3479,"lon":82.4641,"state":"Uttar Pradesh"},{"id":"lgd_districts-504","name":"Mirzapur","level":"district","source_layer":"lgd_districts","lat":24.9866,"lon":82.6074,"state":"Uttar Pradesh"},{"id":"lgd_districts-505","name":"Singrauli","level":"district","source_layer":"lgd_districts","lat":24.2159,"lon":82.4199,"state":"Madhya Pradesh"},{"id":"lgd_districts-506","name":"Korea","level":"district","source_layer":"lgd_districts","lat":23.466,"lon":82.4952,"state":"Chhattisgarh"},{"id":"lgd_districts-507","name":"Manendragarh Chirimiri Bharatpur","level":"district","source_layer":"lgd_districts","lat":23.4716,"lon":82.1114,"state":"Chhattisgarh"},{"id":"lgd_districts-508","name":"Shahdol","level":"district","source_layer":"lgd_districts","lat":23.6294,"lon":81.4735,"state":"Madhya Pradesh"},{"id":"lgd_districts-509","name":"Dindori","level":"district","source_layer":"lgd_districts","lat":22.89,"lon":81.0513,"state":"Madhya Pradesh"},{"id":"lgd_districts-510","name":"Anuppur","level":"district","source_layer":"lgd_districts","lat":23.0569,"lon":81.6827,"state":"Madhya Pradesh"},{"id":"lgd_districts-511","name":"Kabirdham","level":"district","source_layer":"lgd_districts","lat":22.0925,"lon":81.2225,"state":"Chhattisgarh"},{"id":"lgd_districts-512","name":"Mungeli","level":"district","source_layer":"lgd_districts","lat":22.2404,"lon":81.7306,"state":"Chhattisgarh"},{"id":"lgd_districts-513","name":"Janjgir-Champa","level":"district","source_layer":"lgd_districts","lat":21.9556,"lon":82.5596,"state":"Chhattisgarh"},{"id":"lgd_districts-514","name":"Bilaspur","level":"district","source_layer":"lgd_districts","lat":22.18,"lon":82.1159,"state":"Chhattisgarh"},{"id":"lgd_districts-515","name":"Gaurella Pendra Marwahi","level":"district","source_layer":"lgd_districts","lat":22.805,"lon":81.9989,"state":"Chhattisgarh"},{"id":"lgd_districts-516","name":"Korba","level":"district","source_layer":"lgd_districts","lat":22.5343,"lon":82.6087,"state":"Chhattisgarh"},{"id":"lgd_districts-517","name":"Sakti","level":"district","source_layer":"lgd_districts","lat":21.8911,"lon":82.9718,"state":"Chhattisgarh"},{"id":"lgd_districts-518","name":"Raigarh","level":"district","source_layer":"lgd_districts","lat":22.2267,"lon":83.3366,"state":"Chhattisgarh"},{"id":"lgd_districts-519","name":"Sundargarh","level":"district","source_layer":"lgd_districts","lat":22.0804,"lon":84.509,"state":"Odisha"},{"id":"lgd_districts-520","name":"Simdega","level":"district","source_layer":"lgd_districts","lat":22.5818,"lon":84.5642,"state":"Jharkhand"},{"id":"lgd_districts-521","name":"Jashpur","level":"district","source_layer":"lgd_districts","lat":22.8011,"lon":83.8625,"state":"Chhattisgarh"},{"id":"lgd_districts-522","name":"Gumla","level":"district","source_layer":"lgd_districts","lat":23.1032,"lon":84.5324,"state":"Jharkhand"},{"id":"lgd_districts-523","name":"Latehar","level":"district","source_layer":"lgd_districts","lat":23.717,"lon":84.4448,"state":"Jharkhand"},{"id":"lgd_districts-524","name":"Balrampur","level":"district","source_layer":"lgd_districts","lat":23.5921,"lon":83.5006,"state":"Chhattisgarh"},{"id":"lgd_districts-525","name":"Surguja","level":"district","source_layer":"lgd_districts","lat":22.9286,"lon":83.2269,"state":"Chhattisgarh"},{"id":"lgd_districts-526","name":"Surajpur","level":"district","source_layer":"lgd_districts","lat":23.402,"lon":82.8816,"state":"Chhattisgarh"},{"id":"lgd_districts-527","name":"Garhwa","level":"district","source_layer":"lgd_districts","lat":24.1037,"lon":83.6985,"state":"Jharkhand"},{"id":"lgd_districts-528","name":"Sonbhadra","level":"district","source_layer":"lgd_districts","lat":24.408,"lon":83.0519,"state":"Uttar Pradesh"},{"id":"lgd_districts-529","name":"Varanasi","level":"district","source_layer":"lgd_districts","lat":25.3883,"lon":82.914,"state":"Uttar Pradesh"},{"id":"lgd_districts-530","name":"Ghazipur","level":"district","source_layer":"lgd_districts","lat":25.624,"lon":83.5555,"state":"Uttar Pradesh"},{"id":"lgd_districts-531","name":"Chandauli","level":"district","source_layer":"lgd_districts","lat":25.1415,"lon":83.2581,"state":"Uttar Pradesh"},{"id":"lgd_districts-532","name":"Kaimur (Bhabua)","level":"district","source_layer":"lgd_districts","lat":24.9918,"lon":83.6056,"state":"Bihar"},{"id":"lgd_districts-533","name":"Rohtas","level":"district","source_layer":"lgd_districts","lat":24.9798,"lon":84.026,"state":"Bihar"},{"id":"lgd_districts-534","name":"Buxar","level":"district","source_layer":"lgd_districts","lat":25.492,"lon":84.0997,"state":"Bihar"},{"id":"lgd_districts-535","name":"Bhojpur","level":"district","source_layer":"lgd_districts","lat":25.4708,"lon":84.5425,"state":"Bihar"},{"id":"lgd_districts-536","name":"Aurangabad","level":"district","source_layer":"lgd_districts","lat":24.7909,"lon":84.4087,"state":"Bihar"},{"id":"lgd_districts-537","name":"Palamu","level":"district","source_layer":"lgd_districts","lat":24.1998,"lon":84.1689,"state":"Jharkhand"},{"id":"lgd_districts-538","name":"Chatra","level":"district","source_layer":"lgd_districts","lat":24.1643,"lon":84.8919,"state":"Jharkhand"},{"id":"lgd_districts-539","name":"Hazaribagh","level":"district","source_layer":"lgd_districts","lat":24.0621,"lon":85.4259,"state":"Jharkhand"},{"id":"lgd_districts-540","name":"Koderma","level":"district","source_layer":"lgd_districts","lat":24.5001,"lon":85.6682,"state":"Jharkhand"},{"id":"lgd_districts-541","name":"Gaya","level":"district","source_layer":"lgd_districts","lat":24.6968,"lon":84.9343,"state":"Bihar"},{"id":"lgd_districts-542","name":"Jehanabad","level":"district","source_layer":"lgd_districts","lat":25.1551,"lon":85.0168,"state":"Bihar"},{"id":"lgd_districts-543","name":"Arwal","level":"district","source_layer":"lgd_districts","lat":25.1632,"lon":84.6775,"state":"Bihar"},{"id":"lgd_districts-544","name":"Patna","level":"district","source_layer":"lgd_districts","lat":25.4559,"lon":85.2236,"state":"Bihar"},{"id":"lgd_districts-545","name":"Nawada","level":"district","source_layer":"lgd_districts","lat":24.811,"lon":85.5897,"state":"Bihar"},{"id":"lgd_districts-546","name":"Sheikhpura","level":"district","source_layer":"lgd_districts","lat":25.1236,"lon":85.8383,"state":"Bihar"},{"id":"lgd_districts-547","name":"Nalanda","level":"district","source_layer":"lgd_districts","lat":25.2191,"lon":85.4502,"state":"Bihar"},{"id":"lgd_districts-548","name":"Begusarai","level":"district","source_layer":"lgd_districts","lat":25.4967,"lon":86.1297,"state":"Bihar"},{"id":"lgd_districts-549","name":"Lakhisarai","level":"district","source_layer":"lgd_districts","lat":25.1612,"lon":86.1367,"state":"Bihar"},{"id":"lgd_districts-550","name":"Giridih","level":"district","source_layer":"lgd_districts","lat":24.2936,"lon":86.111,"state":"Jharkhand"},{"id":"lgd_districts-551","name":"Jamui","level":"district","source_layer":"lgd_districts","lat":24.7836,"lon":86.2938,"state":"Bihar"},{"id":"lgd_districts-552","name":"Bokaro","level":"district","source_layer":"lgd_districts","lat":23.6947,"lon":85.9965,"state":"Jharkhand"},{"id":"lgd_districts-553","name":"Purulia","level":"district","source_layer":"lgd_districts","lat":23.2767,"lon":86.4215,"state":"West Bengal"},{"id":"lgd_districts-554","name":"Ramgarh","level":"district","source_layer":"lgd_districts","lat":23.6342,"lon":85.5644,"state":"Jharkhand"},{"id":"lgd_districts-555","name":"Lohardaga","level":"district","source_layer":"lgd_districts","lat":23.4757,"lon":84.6718,"state":"Jharkhand"},{"id":"lgd_districts-556","name":"Khunti","level":"district","source_layer":"lgd_districts","lat":22.9943,"lon":85.2626,"state":"Jharkhand"},{"id":"lgd_districts-557","name":"Ranchi","level":"district","source_layer":"lgd_districts","lat":23.3287,"lon":85.3753,"state":"Jharkhand"},{"id":"lgd_districts-558","name":"West Singhbhum","level":"district","source_layer":"lgd_districts","lat":22.4207,"lon":85.5181,"state":"Jharkhand"},{"id":"lgd_districts-559","name":"Saraikela Kharsawan","level":"district","source_layer":"lgd_districts","lat":22.8474,"lon":85.9503,"state":"Jharkhand"},{"id":"lgd_districts-560","name":"Jhargram","level":"district","source_layer":"lgd_districts","lat":22.3632,"lon":86.9553,"state":"West Bengal"},{"id":"lgd_districts-561","name":"East Singhbum","level":"district","source_layer":"lgd_districts","lat":22.5825,"lon":86.4514,"state":"Jharkhand"},{"id":"lgd_districts-562","name":"Paschim Bardhaman","level":"district","source_layer":"lgd_districts","lat":23.6365,"lon":87.1992,"state":"West Bengal"},{"id":"lgd_districts-563","name":"Bankura","level":"district","source_layer":"lgd_districts","lat":23.1392,"lon":87.1363,"state":"West Bengal"},{"id":"lgd_districts-564","name":"Purba Bardhaman","level":"district","source_layer":"lgd_districts","lat":23.3562,"lon":87.9637,"state":"West Bengal"},{"id":"lgd_districts-565","name":"Hooghly","level":"district","source_layer":"lgd_districts","lat":22.8849,"lon":88.0762,"state":"West Bengal"},{"id":"lgd_districts-566","name":"Howrah","level":"district","source_layer":"lgd_districts","lat":22.5215,"lon":88.0634,"state":"West Bengal"},{"id":"lgd_districts-567","name":"Medinipur West","level":"district","source_layer":"lgd_districts","lat":22.4392,"lon":87.4173,"state":"West Bengal"},{"id":"lgd_districts-568","name":"Medinipur East","level":"district","source_layer":"lgd_districts","lat":22.0313,"lon":87.7727,"state":"West Bengal"},{"id":"lgd_districts-569","name":"24 Paraganas South","level":"district","source_layer":"lgd_districts","lat":22.1387,"lon":88.5292,"state":"West Bengal"},{"id":"lgd_districts-570","name":"Kolkata","level":"district","source_layer":"lgd_districts","lat":22.5267,"lon":88.356,"state":"West Bengal"},{"id":"lgd_districts-571","name":"24 Paraganas North","level":"district","source_layer":"lgd_districts","lat":22.7271,"lon":88.7301,"state":"West Bengal"},{"id":"lgd_districts-572","name":"Nadia","level":"district","source_layer":"lgd_districts","lat":23.4798,"lon":88.5167,"state":"West Bengal"},{"id":"lgd_districts-573","name":"Murshidabad","level":"district","source_layer":"lgd_districts","lat":24.1628,"lon":88.2306,"state":"West Bengal"},{"id":"lgd_districts-574","name":"South West Garo Hills","level":"district","source_layer":"lgd_districts","lat":25.4412,"lon":89.9869,"state":"Meghalaya"},{"id":"lgd_districts-575","name":"Dinajpur Dakshin","level":"district","source_layer":"lgd_districts","lat":25.3672,"lon":88.5755,"state":"West Bengal"},{"id":"lgd_districts-576","name":"Katihar","level":"district","source_layer":"lgd_districts","lat":25.5487,"lon":87.6406,"state":"Bihar"},{"id":"lgd_districts-577","name":"Sahebganj","level":"district","source_layer":"lgd_districts","lat":25.0101,"lon":87.6778,"state":"Jharkhand"},{"id":"lgd_districts-578","name":"Maldah","level":"district","source_layer":"lgd_districts","lat":25.1375,"lon":88.0889,"state":"West Bengal"},{"id":"lgd_districts-579","name":"Birbhum","level":"district","source_layer":"lgd_districts","lat":23.9544,"lon":87.6633,"state":"West Bengal"},{"id":"lgd_districts-580","name":"Pakur","level":"district","source_layer":"lgd_districts","lat":24.5642,"lon":87.6626,"state":"Jharkhand"},{"id":"lgd_districts-581","name":"Dumka","level":"district","source_layer":"lgd_districts","lat":24.3196,"lon":87.2664,"state":"Jharkhand"},{"id":"lgd_districts-582","name":"Jamtara","level":"district","source_layer":"lgd_districts","lat":23.9757,"lon":86.9075,"state":"Jharkhand"},{"id":"lgd_districts-583","name":"Dhanbad","level":"district","source_layer":"lgd_districts","lat":23.8268,"lon":86.4723,"state":"Jharkhand"},{"id":"lgd_districts-584","name":"Deoghar","level":"district","source_layer":"lgd_districts","lat":24.3282,"lon":86.74,"state":"Jharkhand"},{"id":"lgd_districts-585","name":"Munger","level":"district","source_layer":"lgd_districts","lat":25.21,"lon":86.5261,"state":"Bihar"},{"id":"lgd_districts-586","name":"Banka","level":"district","source_layer":"lgd_districts","lat":24.8541,"lon":86.8371,"state":"Bihar"},{"id":"lgd_districts-587","name":"Godda","level":"district","source_layer":"lgd_districts","lat":24.8587,"lon":87.3085,"state":"Jharkhand"},{"id":"lgd_districts-588","name":"Bhagalpur","level":"district","source_layer":"lgd_districts","lat":25.2696,"lon":87.0828,"state":"Bihar"},{"id":"lgd_districts-589","name":"Khagaria","level":"district","source_layer":"lgd_districts","lat":25.511,"lon":86.6015,"state":"Bihar"},{"id":"lgd_districts-590","name":"Saharsa","level":"district","source_layer":"lgd_districts","lat":25.8142,"lon":86.5907,"state":"Bihar"},{"id":"lgd_districts-591","name":"Madhepura","level":"district","source_layer":"lgd_districts","lat":25.8228,"lon":86.899,"state":"Bihar"},{"id":"lgd_districts-592","name":"Supaul","level":"district","source_layer":"lgd_districts","lat":26.2451,"lon":86.8082,"state":"Bihar"},{"id":"lgd_districts-593","name":"Gyalshing","level":"district","source_layer":"lgd_districts","lat":27.4047,"lon":88.1756,"state":"Sikkim"},{"id":"lgd_districts-594","name":"Soreng","level":"district","source_layer":"lgd_districts","lat":27.1906,"lon":88.1839,"state":"Sikkim"},{"id":"lgd_districts-595","name":"Darjeeling","level":"district","source_layer":"lgd_districts","lat":26.8506,"lon":88.262,"state":"West Bengal"},{"id":"lgd_districts-596","name":"Kishanganj","level":"district","source_layer":"lgd_districts","lat":26.2964,"lon":87.9356,"state":"Bihar"},{"id":"lgd_districts-597","name":"Araria","level":"district","source_layer":"lgd_districts","lat":26.1987,"lon":87.3634,"state":"Bihar"},{"id":"lgd_districts-598","name":"Purnia","level":"district","source_layer":"lgd_districts","lat":25.8154,"lon":87.4051,"state":"Bihar"},{"id":"lgd_districts-599","name":"Dinajpur Uttar","level":"district","source_layer":"lgd_districts","lat":25.8902,"lon":88.1573,"state":"West Bengal"},{"id":"lgd_districts-600","name":"Jalpaiguri","level":"district","source_layer":"lgd_districts","lat":26.6826,"lon":88.7638,"state":"West Bengal"},{"id":"lgd_districts-601","name":"South Salmara Mancachar","level":"district","source_layer":"lgd_districts","lat":25.8181,"lon":89.9625,"state":"Assam"},{"id":"lgd_districts-602","name":"Dhubri","level":"district","source_layer":"lgd_districts","lat":26.1655,"lon":90.0279,"state":"Assam"},{"id":"lgd_districts-603","name":"Alipurduar","level":"district","source_layer":"lgd_districts","lat":26.6327,"lon":89.463,"state":"West Bengal"},{"id":"lgd_districts-604","name":"Coochbehar","level":"district","source_layer":"lgd_districts","lat":26.2925,"lon":89.347,"state":"West Bengal"},{"id":"lgd_districts-605","name":"Pakyong","level":"district","source_layer":"lgd_districts","lat":27.2435,"lon":88.723,"state":"Sikkim"},{"id":"lgd_districts-606","name":"Kalimpong","level":"district","source_layer":"lgd_districts","lat":27.0345,"lon":88.6309,"state":"West Bengal"},{"id":"lgd_districts-607","name":"Namchi","level":"district","source_layer":"lgd_districts","lat":27.2793,"lon":88.3891,"state":"Sikkim"},{"id":"lgd_districts-608","name":"Gangtok","level":"district","source_layer":"lgd_districts","lat":27.3208,"lon":88.6433,"state":"Sikkim"},{"id":"lgd_districts-609","name":"Mangan","level":"district","source_layer":"lgd_districts","lat":27.7412,"lon":88.5276,"state":"Sikkim"},{"id":"lgd_districts-610","name":"Madhubani","level":"district","source_layer":"lgd_districts","lat":26.4022,"lon":86.2218,"state":"Bihar"},{"id":"lgd_districts-611","name":"Darbhanga","level":"district","source_layer":"lgd_districts","lat":26.0844,"lon":86.0542,"state":"Bihar"},{"id":"lgd_districts-612","name":"Samastipur","level":"district","source_layer":"lgd_districts","lat":25.773,"lon":85.8657,"state":"Bihar"},{"id":"lgd_districts-613","name":"Sitamarhi","level":"district","source_layer":"lgd_districts","lat":26.5851,"lon":85.5526,"state":"Bihar"},{"id":"lgd_districts-614","name":"Sheohar","level":"district","source_layer":"lgd_districts","lat":26.4978,"lon":85.3019,"state":"Bihar"},{"id":"lgd_districts-615","name":"Muzaffarpur","level":"district","source_layer":"lgd_districts","lat":26.1521,"lon":85.3285,"state":"Bihar"},{"id":"lgd_districts-616","name":"Vaishali","level":"district","source_layer":"lgd_districts","lat":25.7631,"lon":85.3682,"state":"Bihar"},{"id":"lgd_districts-617","name":"Saran","level":"district","source_layer":"lgd_districts","lat":25.9057,"lon":84.8232,"state":"Bihar"},{"id":"lgd_districts-618","name":"Purbi Champaran","level":"district","source_layer":"lgd_districts","lat":26.6183,"lon":84.922,"state":"Bihar"},{"id":"lgd_districts-619","name":"Kushi Nagar","level":"district","source_layer":"lgd_districts","lat":26.8628,"lon":83.9338,"state":"Uttar Pradesh"},{"id":"lgd_districts-620","name":"Pashchim Champaran","level":"district","source_layer":"lgd_districts","lat":27.0798,"lon":84.3389,"state":"Bihar"},{"id":"lgd_districts-621","name":"Gopalganj","level":"district","source_layer":"lgd_districts","lat":26.4438,"lon":84.3738,"state":"Bihar"},{"id":"lgd_districts-622","name":"Siwan","level":"district","source_layer":"lgd_districts","lat":26.1613,"lon":84.387,"state":"Bihar"},{"id":"lgd_districts-623","name":"Ballia","level":"district","source_layer":"lgd_districts","lat":25.8763,"lon":84.1026,"state":"Uttar Pradesh"},{"id":"lgd_districts-624","name":"Deoria","level":"district","source_layer":"lgd_districts","lat":26.4254,"lon":83.8346,"state":"Uttar Pradesh"},{"id":"lgd_districts-625","name":"Mau","level":"district","source_layer":"lgd_districts","lat":26.0475,"lon":83.5618,"state":"Uttar Pradesh"},{"id":"lgd_districts-626","name":"Azamgarh","level":"district","source_layer":"lgd_districts","lat":26.0455,"lon":83.0673,"state":"Uttar Pradesh"},{"id":"lgd_districts-627","name":"Sant Kabeer Nagar","level":"district","source_layer":"lgd_districts","lat":26.7755,"lon":83.0272,"state":"Uttar Pradesh"},{"id":"lgd_districts-628","name":"Gorakhpur","level":"district","source_layer":"lgd_districts","lat":26.6561,"lon":83.359,"state":"Uttar Pradesh"},{"id":"lgd_districts-629","name":"Maharajganj","level":"district","source_layer":"lgd_districts","lat":27.2006,"lon":83.5304,"state":"Uttar Pradesh"},{"id":"lgd_districts-630","name":"Siddharth Nagar","level":"district","source_layer":"lgd_districts","lat":27.2702,"lon":82.8733,"state":"Uttar Pradesh"},{"id":"lgd_districts-631","name":"Dibang Valley","level":"district","source_layer":"lgd_districts","lat":28.8677,"lon":95.9078,"state":"Arunachal Pradesh"},{"id":"lgd_districts-632","name":"Lower Dibang Valley","level":"district","source_layer":"lgd_districts","lat":28.2607,"lon":95.8243,"state":"Arunachal Pradesh"},{"id":"lgd_districts-633","name":"Namsai","level":"district","source_layer":"lgd_districts","lat":27.6905,"lon":96.0194,"state":"Arunachal Pradesh"},{"id":"lgd_districts-634","name":"Lohit","level":"district","source_layer":"lgd_districts","lat":27.9167,"lon":96.2961,"state":"Arunachal Pradesh"},{"id":"lgd_districts-635","name":"Anjaw","level":"district","source_layer":"lgd_districts","lat":28.071,"lon":96.8498,"state":"Arunachal Pradesh"},{"id":"lgd_districts-636","name":"Changlang","level":"district","source_layer":"lgd_districts","lat":27.3602,"lon":96.3344,"state":"Arunachal Pradesh"},{"id":"lgd_districts-637","name":"Tinsukia","level":"district","source_layer":"lgd_districts","lat":27.5798,"lon":95.6197,"state":"Assam"},{"id":"lgd_districts-638","name":"Dibrugarh","level":"district","source_layer":"lgd_districts","lat":27.3679,"lon":95.0524,"state":"Assam"},{"id":"lgd_districts-639","name":"Dhemaji","level":"district","source_layer":"lgd_districts","lat":27.59,"lon":94.7748,"state":"Assam"},{"id":"lgd_districts-640","name":"Charaideo","level":"district","source_layer":"lgd_districts","lat":27.0625,"lon":95.0454,"state":"Assam"},{"id":"lgd_districts-641","name":"Longding","level":"district","source_layer":"lgd_districts","lat":26.8552,"lon":95.3277,"state":"Arunachal Pradesh"},{"id":"lgd_districts-642","name":"Tirap","level":"district","source_layer":"lgd_districts","lat":27.0255,"lon":95.5256,"state":"Arunachal Pradesh"},{"id":"lgd_districts-643","name":"Noklak","level":"district","source_layer":"lgd_districts","lat":26.1056,"lon":95.0301,"state":"Nagaland"},{"id":"lgd_districts-644","name":"Shamator","level":"district","source_layer":"lgd_districts","lat":26.145,"lon":94.9488,"state":"Nagaland"},{"id":"lgd_districts-645","name":"Kiphire","level":"district","source_layer":"lgd_districts","lat":25.8436,"lon":94.823,"state":"Nagaland"},{"id":"lgd_districts-646","name":"Tuensang","level":"district","source_layer":"lgd_districts","lat":26.22,"lon":94.7742,"state":"Nagaland"},{"id":"lgd_districts-647","name":"Mon","level":"district","source_layer":"lgd_districts","lat":26.6778,"lon":95.0167,"state":"Nagaland"},{"id":"lgd_districts-648","name":"Longleng","level":"district","source_layer":"lgd_districts","lat":26.5558,"lon":94.7971,"state":"Nagaland"},{"id":"lgd_districts-649","name":"Mokokchung","level":"district","source_layer":"lgd_districts","lat":26.4695,"lon":94.5306,"state":"Nagaland"},{"id":"lgd_districts-650","name":"Jorhat","level":"district","source_layer":"lgd_districts","lat":26.7109,"lon":94.2638,"state":"Assam"},{"id":"lgd_districts-651","name":"Zunheboto","level":"district","source_layer":"lgd_districts","lat":25.9949,"lon":94.4828,"state":"Nagaland"},{"id":"lgd_districts-652","name":"Tseminyu","level":"district","source_layer":"lgd_districts","lat":25.9397,"lon":94.1621,"state":"Nagaland"},{"id":"lgd_districts-653","name":"Kohima","level":"district","source_layer":"lgd_districts","lat":25.7124,"lon":94.0925,"state":"Nagaland"},{"id":"lgd_districts-654","name":"Niuland","level":"district","source_layer":"lgd_districts","lat":25.8497,"lon":93.9056,"state":"Nagaland"},{"id":"lgd_districts-655","name":"Chumoukedima","level":"district","source_layer":"lgd_districts","lat":25.7583,"lon":93.7905,"state":"Nagaland"},{"id":"lgd_districts-656","name":"Wokha","level":"district","source_layer":"lgd_districts","lat":26.1877,"lon":94.1915,"state":"Nagaland"},{"id":"lgd_districts-657","name":"Majuli","level":"district","source_layer":"lgd_districts","lat":26.9624,"lon":94.2038,"state":"Assam"},{"id":"lgd_districts-658","name":"Sivasagar","level":"district","source_layer":"lgd_districts","lat":26.9702,"lon":94.6593,"state":"Assam"},{"id":"lgd_districts-659","name":"Lakhimpur","level":"district","source_layer":"lgd_districts","lat":27.174,"lon":94.1406,"state":"Assam"},{"id":"lgd_districts-660","name":"Kamle","level":"district","source_layer":"lgd_districts","lat":27.7092,"lon":94.0865,"state":"Arunachal Pradesh"},{"id":"lgd_districts-661","name":"Upper Subansiri","level":"district","source_layer":"lgd_districts","lat":28.2902,"lon":93.933,"state":"Arunachal Pradesh"},{"id":"lgd_districts-662","name":"West Siang","level":"district","source_layer":"lgd_districts","lat":28.1851,"lon":94.6207,"state":"Arunachal Pradesh"},{"id":"lgd_districts-663","name":"Lower Siang","level":"district","source_layer":"lgd_districts","lat":27.7752,"lon":94.6945,"state":"Arunachal Pradesh"},{"id":"lgd_districts-664","name":"Leparada","level":"district","source_layer":"lgd_districts","lat":27.9255,"lon":94.7161,"state":"Arunachal Pradesh"},{"id":"lgd_districts-665","name":"East Siang","level":"district","source_layer":"lgd_districts","lat":28.0501,"lon":95.3506,"state":"Arunachal Pradesh"},{"id":"lgd_districts-666","name":"Siang","level":"district","source_layer":"lgd_districts","lat":28.4199,"lon":94.8188,"state":"Arunachal Pradesh"},{"id":"lgd_districts-667","name":"Upper Siang","level":"district","source_layer":"lgd_districts","lat":28.8329,"lon":94.9153,"state":"Arunachal Pradesh"},{"id":"lgd_districts-668","name":"Shi Yomi","level":"district","source_layer":"lgd_districts","lat":28.677,"lon":94.261,"state":"Arunachal Pradesh"},{"id":"lgd_districts-669","name":"Kra Daadi","level":"district","source_layer":"lgd_districts","lat":28.0175,"lon":93.6829,"state":"Arunachal Pradesh"},{"id":"lgd_districts-670","name":"Kurung Kumey","level":"district","source_layer":"lgd_districts","lat":28.0026,"lon":93.2069,"state":"Arunachal Pradesh"},{"id":"lgd_districts-671","name":"Tawang","level":"district","source_layer":"lgd_districts","lat":27.6622,"lon":91.9652,"state":"Arunachal Pradesh"},{"id":"lgd_districts-672","name":"Barpeta","level":"district","source_layer":"lgd_districts","lat":26.3015,"lon":90.9731,"state":"Assam"},{"id":"lgd_districts-673","name":"Bongaigaon","level":"district","source_layer":"lgd_districts","lat":26.3327,"lon":90.5849,"state":"Assam"},{"id":"lgd_districts-674","name":"Chirang","level":"district","source_layer":"lgd_districts","lat":26.6462,"lon":90.6136,"state":"Assam"},{"id":"lgd_districts-675","name":"Kokrajhar","level":"district","source_layer":"lgd_districts","lat":26.4977,"lon":90.126,"state":"Assam"},{"id":"lgd_districts-676","name":"North Garo Hills","level":"district","source_layer":"lgd_districts","lat":25.8524,"lon":90.6621,"state":"Meghalaya"},{"id":"lgd_districts-677","name":"Goalpara","level":"district","source_layer":"lgd_districts","lat":26.0481,"lon":90.6091,"state":"Assam"},{"id":"lgd_districts-678","name":"Kamrup","level":"district","source_layer":"lgd_districts","lat":26.1008,"lon":91.4144,"state":"Assam"},{"id":"lgd_districts-679","name":"Baksa","level":"district","source_layer":"lgd_districts","lat":26.6643,"lon":91.1964,"state":"Assam"},{"id":"lgd_districts-680","name":"Bajali","level":"district","source_layer":"lgd_districts","lat":26.5062,"lon":91.1403,"state":"Assam"},{"id":"lgd_districts-681","name":"Nalbari","level":"district","source_layer":"lgd_districts","lat":26.3727,"lon":91.3831,"state":"Assam"},{"id":"lgd_districts-682","name":"Tamulpur","level":"district","source_layer":"lgd_districts","lat":26.6544,"lon":91.6229,"state":"Assam"},{"id":"lgd_districts-683","name":"Kamrup Metro","level":"district","source_layer":"lgd_districts","lat":26.1267,"lon":91.8843,"state":"Assam"},{"id":"lgd_districts-684","name":"Ri Bhoi","level":"district","source_layer":"lgd_districts","lat":25.8737,"lon":91.8846,"state":"Meghalaya"},{"id":"lgd_districts-685","name":"West Karbi Anglong","level":"district","source_layer":"lgd_districts","lat":25.85,"lon":92.533,"state":"Assam"},{"id":"lgd_districts-686","name":"Marigaon","level":"district","source_layer":"lgd_districts","lat":26.2807,"lon":92.2785,"state":"Assam"},{"id":"lgd_districts-687","name":"Darrang","level":"district","source_layer":"lgd_districts","lat":26.4428,"lon":92.0295,"state":"Assam"},{"id":"lgd_districts-688","name":"Udalguri","level":"district","source_layer":"lgd_districts","lat":26.7245,"lon":92.0313,"state":"Assam"},{"id":"lgd_districts-689","name":"West Kameng","level":"district","source_layer":"lgd_districts","lat":27.2919,"lon":92.3931,"state":"Arunachal Pradesh"},{"id":"lgd_districts-690","name":"Sonitpur","level":"district","source_layer":"lgd_districts","lat":26.7603,"lon":92.6286,"state":"Assam"},{"id":"lgd_districts-691","name":"Pakke Kessang","level":"district","source_layer":"lgd_districts","lat":27.1105,"lon":93.0292,"state":"Arunachal Pradesh"},